[ 10:41:43.665 ] [27:INFO] res: \r\n001\r\n\r\nOK\r\n
[ 10:41:43.666 ] [27:INFO] cmd: AT%GPS=30,2,"RMC","GGA"*D90A
[ 10:41:43.668 ] [27:INFO] res: \r\n%GPS: $GPGGA,104143.000,0000.0000,N,00000.0000,E,1,09,1.0,0.00,M,,,,0000*34\r\n$GPRMC,104143.000,A,0000.0000,N,00000.0000,E,0.00,000.00,161014,,,A*6E\r\n\r\nOK\r\n
[ 10:41:44.678 ] [27:INFO] cmd: ATS89?*47C6
[ 10:41:44.684 ] [27:INFO] res: \r\n001\r\n\r\nOK\r\n
[ 10:41:44.684 ] [27:INFO] cmd: AT%GPS=30,2,"RMC","GGA"*D90A
[ 10:41:44.689 ] [27:INFO] res: \r\n%GPS: $GPGGA,104144.000,0000.0000,N,00000.0000,E,1,09,1.0,0.00,M,,,,0000*33\r\n$GPRMC,104144.000,A,0000.0000,N,00000.0000,E,0.00,000.00,161014,,,A*69\r\n\r\nOK\r\n
[ 10:41:45.691 ] [27:INFO] cmd: ATS89?*47C6
[ 10:41:45.692 ] [27:INFO] res: \r\n001\r\n\r\nOK\r\n
[ 10:41:45.693 ] [27:INFO] cmd: AT%GPS=30,2,"RMC","GGA"*D90A
[ 10:41:45.695 ] [27:INFO] res: \r\n%GPS: $GPGGA,104145.000,0000.0000,N,00000.0000,E,1,09,1.0,0.00,M,,,,0000*32\r\n$GPRMC,104145.000,A,0000.0000,N,00000.0000,E,0.00,000.00,161014,,,A*68\r\n\r\nOK\r\n
[ 10:41:46.705 ] [27:INFO] cmd: ATS89?*47C6
[ 10:41:46.707 ] [27:INFO] res: \r\n001\r\n\r\nOK\r\n
[ 10:41:46.707 ] [27:INFO] cmd: AT%GPS=30,2,"RMC","GGA"*D90A
[ 10:41:46.710 ] [27:INFO] res: \r\n%GPS: $GPGGA,104146.000,0000.0000,N,00000.0000,E,1,09,1.0,0.00,M,,,,0000*31\r\n$GPRMC,104146.000,A,0000.0000,N,00000.0000,E,0.00,000.00,161014,,,A*6B\r\n\r\nOK\r\n
[ 10:41:47.718 ] [27:INFO] cmd: ATS89?*47C6
[ 10:41:47.720 ] [27:INFO] res: \r\n001\r\n\r\nOK\r\n
[ 10:41:47.720 ] [27:INFO] cmd: AT%GPS=30,2,"RMC","GGA"*D90A
[ 10:41:47.723 ] [27:INFO] res: \r\n%GPS: $GPGGA,104147.000,0000.0000,N,00000.0000,E,1,09,1.0,0.00,M,,,,0000*30\r\n$GPRMC,104147.000,A,0000.0000,N,00000.0000,E,0.00,000.00,161014,,,A*6A\r\n\r\nOK\r\n
[ 10:41:48.733 ] [27:INFO] cmd: ATS89?*47C6
[ 10:41:48.735 ] [27:INFO] res: \r\n001\r\n\r\nOK\r\n
[ 10:41:48.736 ] [27:INFO] cmd: AT%GPS=30,2,"RMC","GGA"*D90A
[ 10:41:48.738 ] [27:INFO] res: \r\n%GPS: $GPGGA,104148.000,0000.0000,N,00000.0000,E,1,09,1.0,0.00,M,,,,0000*3F\r\n$GPRMC,104148.000,A,0000.0000,N,00000.0000,E,0.00,000.00,161014,,,A*65\r\n\r\nOK\r\n
[ 10:41:49.747 ] [27:INFO] cmd: ATS89?*47C6
[ 10:41:49.749 ] [27:INFO] res: \r\n001\r\n\r\nOK\r\n
[ 10:41:49.749 ] [27:INFO] cmd: AT%GPS=30,2,"RMC","GGA"*D90A
[ 10:41:49.752 ] [27:INFO] res: \r\n%GPS: $GPGGA,104149.000,0000.0000,N,00000.0000,E,1,09,1.0,0.00,M,,,,0000*3E\r\n$GPRMC,104149.000,A,0000.0000,N,00000.0000,E,0.00,000.00,161014,,,A*64\r\n\r\nOK\r\n
[ 10:41:50.761 ] [27:INFO] cmd: ATS89?*47C6
[ 10:41:50.763 ] [27:INFO] res: \r\n001\r\n\r\nOK\r\n
[ 10:41:50.763 ] [27:INFO] cmd: AT%GPS=30,2,"RMC","GGA"*D90A
[ 10:41:50.766 ] [27:INFO] res: \r\n%GPS: $GPGGA,104150.000,0000.0000,N,00000.0000,E,1,09,1.0,0.00,M,,,,0000*36\r\n$GPRMC,104150.000,A,0000.0000,N,00000.0000,E,0.00,000.00,161014,,,A*6C\r\n\r\nOK\r\n
[ 10:41:51.775 ] [27:INFO] cmd: ATS89?*47C6
[ 10:41:51.777 ] [27:INFO] res: \r\n001\r\n\r\nOK\r\n
[ 10:41:51.777 ] [27:INFO] cmd: AT%GPS=30,2,"RMC","GGA"*D90A
[ 10:41:51.781 ] [27:INFO] res: \r\n%GPS: $GPGGA,104151.000,0000.0000,N,00000.0000,E,1,09,1.0,0.00,M,,,,0000*37\r\n$GPRMC,104151.000,A,0000.0000,N,00000.0000,E,0.00,000.00,161014,,,A*6D\r\n\r\nOK\r\n
[ 10:41:52.790 ] [27:INFO] cmd: ATS89?*47C6
[ 10:41:52.792 ] [27:INFO] res: \r\n001\r\n\r\nOK\r\n
[ 10:41:52.795 ] [27:INFO] cmd: AT%GPS=30,2,"RMC","GGA"*D90A
[ 10:41:52.801 ] [27:INFO] res: \r\n%GPS: $GPGGA,104152.000,0000.0000,N,00000.0000,E,1,09,1.0,0.00,M,,,,0000*34\r\n$GPRMC,104152.000,A,0000.0000,N,00000.0000,E,0.00,000.00,161014,,,A*6E\r\n\r\nOK\r\n
[ 10:41:53.805 ] [27:INFO] cmd: ATS89?*47C6
[ 10:41:53.807 ] [27:INFO] res: \r\n001\r\n\r\nOK\r\n
[ 10:41:53.807 ] [27:INFO] cmd: AT%GPS=30,2,"RMC","GGA"*D90A
[ 10:41:53.810 ] [27:INFO] res: \r\n%GPS: $GPGGA,104153.000,0000.0000,N,00000.0000,E,1,09,1.0,0.00,M,,,,0000*35\r\n$GPRMC,104153.000,A,0000.0000,N,00000.0000,E,0.00,000.00,161014,,,A*6F\r\n\r\nOK\r\n
[ 10:41:54.819 ] [27:INFO] cmd: ATS89?*47C6
[ 10:41:54.821 ] [27:INFO] res: \r\n001\r\n\r\nOK\r\n
[ 10:41:54.821 ] [27:INFO] cmd: AT%GPS=30,2,"RMC","GGA"*D90A
[ 10:41:54.826 ] [27:INFO] res: \r\n%GPS: $GPGGA,104154.000,0000.0000,N,00000.0000,E,1,09,1.0,0.00,M,,,,0000*32\r\n$GPRMC,104154.000,A,0000.0000,N,00000.0000,E,0.00,000.00,161014,,,A*68\r\n\r\nOK\r\n
[ 10:41:55.832 ] [27:INFO] cmd: ATS89?*47C6
[ 10:41:55.834 ] [27:INFO] res: \r\n001\r\n\r\nOK\r\n
[ 10:41:55.835 ] [27:INFO] cmd: AT%GPS=30,2,"RMC","GGA"*D90A
[ 10:41:55.838 ] [27:INFO] res: \r\n%GPS: $GPGGA,104155.000,0000.0000,N,00000.0000,E,1,09,1.0,0.00,M,,,,0000*33\r\n$GPRMC,104155.000,A,0000.0000,N,00000.0000,E,0.00,000.00,161014,,,A*69\r\n\r\nOK\r\n
[ 10:41:56.847 ] [27:INFO] cmd: ATS89?*47C6
[ 10:41:56.849 ] [27:INFO] res: \r\n001\r\n\r\nOK\r\n
[ 10:41:56.850 ] [27:INFO] cmd: AT%GPS=30,2,"RMC","GGA"*D90A
[ 10:41:56.853 ] [27:INFO] res: \r\n%GPS: $GPGGA,104156.000,0000.0000,N,00000.0000,E,1,09,1.0,0.00,M,,,,0000*30\r\n$GPRMC,104156.000,A,0000.0000,N,00000.0000,E,0.00,000.00,161014,,,A*6A\r\n\r\nOK\r\n
[ 10:41:57.860 ] [27:INFO] cmd: ATS89?*47C6
[ 10:41:57.862 ] [27:INFO] res: \r\n001\r\n\r\nOK\r\n
[ 10:41:57.862 ] [27:INFO] cmd: AT%GPS=30,2,"RMC","GGA"*D90A
[ 10:41:57.865 ] [27:INFO] res: \r\n%GPS: $GPGGA,104157.000,0000.0000,N,00000.0000,E,1,09,1.0,0.00,M,,,,0000*31\r\n$GPRMC,104157.000,A,0000.0000,N,00000.0000,E,0.00,000.00,161014,,,A*6B\r\n\r\nOK\r\n
[ 10:41:58.875 ] [27:INFO] cmd: ATS89?*47C6
[ 10:41:58.877 ] [27:INFO] res: \r\n001\r\n\r\nOK\r\n
[ 10:41:58.877 ] [27:INFO] cmd: AT%GPS=30,2,"RMC","GGA"*D90A
[ 10:41:58.884 ] [27:INFO] res: \r\n%GPS: $GPGGA,104158.000,0000.0000,N,00000.0000,E,1,09,1.0,0.00,M,,,,0000*3E\r\n$GPRMC,104158.000,A,0000.0000,N,00000.0000,E,0.00,000.00,161014,,,A*64\r\n\r\nOK\r\n
[ 10:41:59.888 ] [27:INFO] cmd: ATS89?*47C6
[ 10:41:59.890 ] [27:INFO] res: \r\n001\r\n\r\nOK\r\n
[ 10:41:59.891 ] [27:INFO] cmd: AT%GPS=30,2,"RMC","GGA"*D90A
[ 10:41:59.894 ] [27:INFO] res: \r\n%GPS: $GPGGA,104159.000,0000.0000,N,00000.0000,E,1,09,1.0,0.00,M,,,,0000*3F\r\n$GPRMC,104159.000,A,0000.0000,N,00000.0000,E,0.00,000.00,161014,,,A*65\r\n\r\nOK\r\n
[ 10:42:00.903 ] [27:INFO] cmd: ATS89?*47C6
[ 10:42:00.915 ] [27:INFO] res: \r\n001\r\n\r\nOK\r\n
[ 10:42:00.915 ] [27:INFO] cmd: AT%GPS=30,2,"RMC","GGA"*D90A
[ 10:42:00.919 ] [27:INFO] res: \r\n%GPS: $GPGGA,104200.000,0000.0000,N,00000.0000,E,1,09,1.0,0.00,M,,,,0000*30\r\n$GPRMC,104200.000,A,0000.0000,N,00000.0000,E,0.00,000.00,161014,,,A*6A\r\n\r\nOK\r\n
[ 10:42:01.916 ] [27:INFO] cmd: ATS89?*47C6
[ 10:42:01.918 ] [27:INFO] res: \r\n001\r\n\r\nOK\r\n
[ 10:42:01.918 ] [27:INFO] cmd: AT%GPS=30,2,"RMC","GGA"*D90A
[ 10:42:01.921 ] [27:INFO] res: \r\n%GPS: $GPGGA,104201.000,0000.0000,N,00000.0000,E,1,09,1.0,0.00,M,,,,0000*31\r\n$GPRMC,104201.000,A,0000.0000,N,00000.0000,E,0.00,000.00,161014,,,A*6B\r\n\r\nOK\r\n
[ 10:42:02.931 ] [27:INFO] cmd: ATS89?*47C6
[ 10:42:02.933 ] [27:INFO] res: \r\n001\r\n\r\nOK\r\n
[ 10:42:02.933 ] [27:INFO] cmd: AT%GPS=30,2,"RMC","GGA"*D90A
[ 10:42:02.937 ] [27:INFO] res: \r\n%GPS: $GPGGA,104202.000,0000.0000,N,00000.0000,E,1,09,1.0,0.00,M,,,,0000*32\r\n$GPRMC,104202.000,A,0000.0000,N,00000.0000,E,0.00,000.00,161014,,,A*68\r\n\r\nOK\r\n
[ 10:42:03.944 ] [27:INFO] cmd: ATS89?*47C6
[ 10:42:03.945 ] [27:INFO] res: \r\n001\r\n\r\nOK\r\n
[ 10:42:03.946 ] [27:INFO] cmd: AT%GPS=30,2,"RMC","GGA"*D90A
[ 10:42:03.948 ] [27:INFO] res: \r\n%GPS: $GPGGA,104203.000,0000.0000,N,00000.0000,E,1,09,1.0,0.00,M,,,,0000*33\r\n$GPRMC,104203.000,A,0000.0000,N,00000.0000,E,0.00,000.00,161014,,,A*69\r\n\r\nOK\r\n
[ 10:42:04.751 ] [21:INFO] fix req
[ 10:42:04.751 ] [21:INFO] next run in 25
[ 10:42:04.752 ] [21:INFO] check start
[ 10:42:04.757 ] [21:INFO] check done in 0 seconds
[ 10:42:04.958 ] [27:INFO] cmd: ATS89?*47C6
[ 10:42:04.960 ] [27:INFO] res: \r\n001\r\n\r\nOK\r\n
[ 10:42:04.960 ] [27:INFO] cmd: AT%GPS=30,2,"RMC","GGA"*D90A
[ 10:42:04.965 ] [27:INFO] res: \r\n%GPS: $GPGGA,104204.000,0000.0000,N,00000.0000,E,1,09,1.0,0.00,M,,,,0000*34\r\n$GPRMC,104204.000,A,0000.0000,N,00000.0000,E,0.00,000.00,161014,,,A*6E\r\n\r\nOK\r\n
[ 10:42:05.972 ] [27:INFO] cmd: ATS89?*47C6
[ 10:42:05.974 ] [27:INFO] res: \r\n001\r\n\r\nOK\r\n
[ 10:42:05.974 ] [27:INFO] cmd: AT%GPS=30,2,"RMC","GGA"*D90A
[ 10:42:05.977 ] [27:INFO] res: \r\n%GPS: $GPGGA,104205.000,0000.0000,N,00000.0000,E,1,09,1.0,0.00,M,,,,0000*35\r\n$GPRMC,104205.000,A,0000.0000,N,00000.0000,E,0.00,000.00,161014,,,A*6F\r\n\r\nOK\r\n
[ 10:42:06.986 ] [27:INFO] cmd: ATS89?*47C6
[ 10:42:06.987 ] [27:INFO] res: \r\n001\r\n\r\nOK\r\n
[ 10:42:06.988 ] [27:INFO] cmd: AT%GPS=30,2,"RMC","GGA"*D90A
[ 10:42:06.991 ] [27:INFO] res: \r\n%GPS: $GPGGA,104206.000,0000.0000,N,00000.0000,E,1,09,1.0,0.00,M,,,,0000*36\r\n$GPRMC,104206.000,A,0000.0000,N,00000.0000,E,0.00,000.00,161014,,,A*6C\r\n\r\nOK\r\n
[ 10:42:07.999 ] [27:INFO] cmd: ATS89?*47C6
[ 10:42:08.001 ] [27:INFO] res: \r\n001\r\n\r\nOK\r\n
[ 10:42:08.002 ] [27:INFO] cmd: AT%GPS=30,2,"RMC","GGA"*D90A
[ 10:42:08.005 ] [27:INFO] res: \r\n%GPS: $GPGGA,104208.000,0000.0000,N,00000.0000,E,1,09,1.0,0.00,M,,,,0000*38\r\n$GPRMC,104208.000,A,0000.0000,N,00000.0000,E,0.00,000.00,161014,,,A*62\r\n\r\nOK\r\n
[ 10:42:09.014 ] [27:INFO] cmd: ATS89?*47C6
[ 10:42:09.016 ] [27:INFO] res: \r\n001\r\n\r\nOK\r\n
[ 10:42:09.016 ] [27:INFO] cmd: AT%GPS=30,2,"RMC","GGA"*D90A
[ 10:42:09.019 ] [27:INFO] res: \r\n%GPS: $GPGGA,104209.000,0000.0000,N,00000.0000,E,1,09,1.0,0.00,M,,,,0000*39\r\n$GPRMC,104209.000,A,0000.0000,N,00000.0000,E,0.00,000.00,161014,,,A*63\r\n\r\nOK\r\n
[ 10:42:10.028 ] [27:INFO] cmd: ATS89?*47C6
[ 10:42:10.030 ] [27:INFO] res: \r\n001\r\n\r\nOK\r\n
[ 10:42:10.033 ] [27:INFO] cmd: AT%GPS=30,2,"RMC","GGA"*D90A
[ 10:42:10.036 ] [27:INFO] res: \r\n%GPS: $GPGGA,104210.000,0000.0000,N,00000.0000,E,1,09,1.0,0.00,M,,,,0000*31\r\n$GPRMC,104210.000,A,0000.0000,N,00000.0000,E,0.00,000.00,161014,,,A*6B\r\n\r\nOK\r\n
[ 10:42:11.043 ] [27:INFO] cmd: ATS89?*47C6
[ 10:42:11.044 ] [27:INFO] res: \r\n001\r\n\r\nOK\r\n
[ 10:42:11.045 ] [27:INFO] cmd: AT%GPS=30,2,"RMC","GGA"*D90A
[ 10:42:11.048 ] [27:INFO] res: \r\n%GPS: $GPGGA,104211.000,0000.0000,N,00000.0000,E,1,09,1.0,0.00,M,,,,0000*30\r\n$GPRMC,104211.000,A,0000.0000,N,00000.0000,E,0.00,000.00,161014,,,A*6A\r\n\r\nOK\r\n
[ 10:42:12.056 ] [27:INFO] cmd: ATS89?*47C6
[ 10:42:12.058 ] [27:INFO] res: \r\n001\r\n\r\nOK\r\n
[ 10:42:12.059 ] [27:INFO] cmd: AT%GPS=30,2,"RMC","GGA"*D90A
[ 10:42:12.062 ] [27:INFO] res: \r\n%GPS: $GPGGA,104212.000,0000.0000,N,00000.0000,E,1,09,1.0,0.00,M,,,,0000*33\r\n$GPRMC,104212.000,A,0000.0000,N,00000.0000,E,0.00,000.00,161014,,,A*69\r\n\r\nOK\r\n
[ 10:42:13.070 ] [27:INFO] cmd: ATS89?*47C6
[ 10:42:13.072 ] [27:INFO] res: \r\n001\r\n\r\nOK\r\n
[ 10:42:13.072 ] [27:INFO] cmd: AT%GPS=30,2,"RMC","GGA"*D90A
[ 10:42:13.075 ] [27:INFO] res: \r\n%GPS: $GPGGA,104213.000,0000.0000,N,00000.0000,E,1,09,1.0,0.00,M,,,,0000*32\r\n$GPRMC,104213.000,A,0000.0000,N,00000.0000,E,0.00,000.00,161014,,,A*68\r\n\r\nOK\r\n
[ 10:42:14.085 ] [27:INFO] cmd: ATS89?*47C6
[ 10:42:14.088 ] [27:INFO] res: \r\n001\r\n\r\nOK\r\n
[ 10:42:14.090 ] [27:INFO] cmd: AT%GPS=30,2,"RMC","GGA"*D90A
[ 10:42:14.095 ] [27:INFO] res: \r\n%GPS: $GPGGA,104214.000,0000.0000,N,00000.0000,E,1,09,1.0,0.00,M,,,,0000*35\r\n$GPRMC,104214.000,A,0000.0000,N,00000.0000,E,0.00,000.00,161014,,,A*6F\r\n\r\nOK\r\n
[ 10:42:15.099 ] [27:INFO] cmd: ATS89?*47C6
[ 10:42:15.101 ] [27:INFO] res: \r\n001\r\n\r\nOK\r\n
[ 10:42:15.101 ] [27:INFO] cmd: AT%GPS=30,2,"RMC","GGA"*D90A
[ 10:42:15.104 ] [27:INFO] res: \r\n%GPS: $GPGGA,104215.000,0000.0000,N,00000.0000,E,1,09,1.0,0.00,M,,,,0000*34\r\n$GPRMC,104215.000,A,0000.0000,N,00000.0000,E,0.00,000.00,161014,,,A*6E\r\n\r\nOK\r\n
[ 10:42:16.112 ] [27:INFO] cmd: ATS89?*47C6
[ 10:42:16.118 ] [27:INFO] res: \r\n001\r\n\r\nOK\r\n
[ 10:42:16.119 ] [27:INFO] cmd: AT%GPS=30,2,"RMC","GGA"*D90A
[ 10:42:16.122 ] [27:INFO] res: \r\n%GPS: $GPGGA,104216.000,0000.0000,N,00000.0000,E,1,09,1.0,0.00,M,,,,0000*37\r\n$GPRMC,104216.000,A,0000.0000,N,00000.0000,E,0.00,000.00,161014,,,A*6D\r\n\r\nOK\r\n
[ 10:42:17.130 ] [27:INFO] cmd: ATS89?*47C6
[ 10:42:17.132 ] [27:INFO] res: \r\n001\r\n\r\nOK\r\n
[ 10:42:17.133 ] [27:INFO] cmd: AT%GPS=30,2,"RMC","GGA"*D90A
[ 10:42:17.135 ] [27:INFO] res: \r\n%GPS: $GPGGA,104217.000,0000.0000,N,00000.0000,E,1,09,1.0,0.00,M,,,,0000*36\r\n$GPRMC,104217.000,A,0000.0000,N,00000.0000,E,0.00,000.00,161014,,,A*6C\r\n\r\nOK\r\n
[ 10:42:18.139 ] [27:INFO] cmd: ATS89?*47C6
[ 10:42:18.141 ] [27:INFO] res: \r\n001\r\n\r\nOK\r\n
[ 10:42:18.141 ] [27:INFO] cmd: AT%GPS=30,2,"RMC","GGA"*D90A
[ 10:42:18.144 ] [27:INFO] res: \r\n%GPS: $GPGGA,104218.000,0000.0000,N,00000.0000,E,1,09,1.0,0.00,M,,,,0000*39\r\n$GPRMC,104218.000,A,0000.0000,N,00000.0000,E,0.00,000.00,161014,,,A*63\r\n\r\nOK\r\n
[ 10:42:19.153 ] [27:INFO] cmd: ATS89?*47C6
[ 10:42:19.156 ] [27:INFO] res: \r\n001\r\n\r\nOK\r\n
[ 10:42:19.156 ] [27:INFO] cmd: AT%GPS=30,2,"RMC","GGA"*D90A
[ 10:42:19.159 ] [27:INFO] res: \r\n%GPS: $GPGGA,104219.000,0000.0000,N,00000.0000,E,1,09,1.0,0.00,M,,,,0000*38\r\n$GPRMC,104219.000,A,0000.0000,N,00000.0000,E,0.00,000.00,161014,,,A*62\r\n\r\nOK\r\n
[ 10:42:20.167 ] [27:INFO] cmd: ATS89?*47C6
[ 10:42:20.169 ] [27:INFO] res: \r\n001\r\n\r\nOK\r\n
[ 10:42:20.170 ] [27:INFO] cmd: AT%GPS=30,2,"RMC","GGA"*D90A
[ 10:42:20.173 ] [27:INFO] res: \r\n%GPS: $GPGGA,104220.000,0000.0000,N,00000.0000,E,1,09,1.0,0.00,M,,,,0000*32\r\n$GPRMC,104220.000,A,0000.0000,N,00000.0000,E,0.00,000.00,161014,,,A*68\r\n\r\nOK\r\n
[ 10:42:21.181 ] [27:INFO] cmd: ATS89?*47C6
[ 10:42:21.183 ] [27:INFO] res: \r\n001\r\n\r\nOK\r\n
[ 10:42:21.184 ] [27:INFO] cmd: AT%GPS=30,2,"RMC","GGA"*D90A
[ 10:42:21.187 ] [27:INFO] res: \r\n%GPS: $GPGGA,104221.000,0000.0000,N,00000.0000,E,1,09,1.0,0.00,M,,,,0000*33\r\n$GPRMC,104221.000,A,0000.0000,N,00000.0000,E,0.00,000.00,161014,,,A*69\r\n\r\nOK\r\n
[ 10:42:22.196 ] [27:INFO] cmd: ATS89?*47C6
[ 10:42:22.198 ] [27:INFO] res: \r\n001\r\n\r\nOK\r\n
[ 10:42:22.198 ] [27:INFO] cmd: AT%GPS=30,2,"RMC","GGA"*D90A
[ 10:42:22.204 ] [27:INFO] res: \r\n%GPS: $GPGGA,104222.000,0000.0000,N,00000.0000,E,1,09,1.0,0.00,M,,,,0000*30\r\n$GPRMC,104222.000,A,0000.0000,N,00000.0000,E,0.00,000.00,161014,,,A*6A\r\n\r\nOK\r\n
[ 10:42:23.210 ] [27:INFO] cmd: ATS89?*47C6
[ 10:42:23.212 ] [27:INFO] res: \r\n001\r\n\r\nOK\r\n
[ 10:42:23.212 ] [27:INFO] cmd: AT%GPS=30,2,"RMC","GGA"*D90A
[ 10:42:23.215 ] [27:INFO] res: \r\n%GPS: $GPGGA,104223.000,0000.0000,N,00000.0000,E,1,09,1.0,0.00,M,,,,0000*31\r\n$GPRMC,104223.000,A,0000.0000,N,00000.0000,E,0.00,000.00,161014,,,A*6B\r\n\r\nOK\r\n
[ 10:42:24.225 ] [27:INFO] cmd: ATS89?*47C6
[ 10:42:24.227 ] [27:INFO] res: \r\n001\r\n\r\nOK\r\n
[ 10:42:24.227 ] [27:INFO] cmd: AT%GPS=30,2,"RMC","GGA"*D90A
[ 10:42:24.230 ] [27:INFO] res: \r\n%GPS: $GPGGA,104224.000,0000.0000,N,00000.0000,E,1,09,1.0,0.00,M,,,,0000*36\r\n$GPRMC,104224.000,A,0000.0000,N,00000.0000,E,0.00,000.00,161014,,,A*6C\r\n\r\nOK\r\n
[ 10:42:25.237 ] [27:INFO] cmd: ATS89?*47C6
[ 10:42:25.242 ] [27:INFO] res: \r\n001\r\n\r\nOK\r\n
[ 10:42:25.242 ] [27:INFO] cmd: AT%GPS=30,2,"RMC","GGA"*D90A
[ 10:42:25.245 ] [27:INFO] res: \r\n%GPS: $GPGGA,104225.000,0000.0000,N,00000.0000,E,1,09,1.0,0.00,M,,,,0000*37\r\n$GPRMC,104225.000,A,0000.0000,N,00000.0000,E,0.00,000.00,161014,,,A*6D\r\n\r\nOK\r\n
[ 10:42:26.251 ] [27:INFO] cmd: ATS89?*47C6
[ 10:42:26.253 ] [27:INFO] res: \r\n001\r\n\r\nOK\r\n
[ 10:42:26.254 ] [27:INFO] cmd: AT%GPS=30,2,"RMC","GGA"*D90A
[ 10:42:26.257 ] [27:INFO] res: \r\n%GPS: $GPGGA,104226.000,0000.0000,N,00000.0000,E,1,09,1.0,0.00,M,,,,0000*34\r\n$GPRMC,104226.000,A,0000.0000,N,00000.0000,E,0.00,000.00,161014,,,A*6E\r\n\r\nOK\r\n
[ 10:42:27.267 ] [27:INFO] cmd: ATS89?*47C6
[ 10:42:27.268 ] [27:INFO] res: \r\n001\r\n\r\nOK\r\n
[ 10:42:27.269 ] [27:INFO] cmd: AT%GPS=30,2,"RMC","GGA"*D90A
[ 10:42:27.272 ] [27:INFO] res: \r\n%GPS: $GPGGA,104227.000,0000.0000,N,00000.0000,E,1,09,1.0,0.00,M,,,,0000*35\r\n$GPRMC,104227.000,A,0000.0000,N,00000.0000,E,0.00,000.00,161014,,,A*6F\r\n\r\nOK\r\n
[ 10:42:28.281 ] [27:INFO] cmd: ATS89?*47C6
[ 10:42:28.283 ] [27:INFO] res: \r\n001\r\n\r\nOK\r\n
[ 10:42:28.283 ] [27:INFO] cmd: AT%GPS=30,2,"RMC","GGA"*D90A
[ 10:42:28.286 ] [27:INFO] res: \r\n%GPS: $GPGGA,104228.000,0000.0000,N,00000.0000,E,1,09,1.0,0.00,M,,,,0000*3A\r\n$GPRMC,104228.000,A,0000.0000,N,00000.0000,E,0.00,000.00,161014,,,A*60\r\n\r\nOK\r\n
[ 10:42:29.295 ] [27:INFO] cmd: ATS89?*47C6
[ 10:42:29.297 ] [27:INFO] res: \r\n001\r\n\r\nOK\r\n
[ 10:42:29.298 ] [27:INFO] cmd: AT%GPS=30,2,"RMC","GGA"*D90A
[ 10:42:29.302 ] [27:INFO] res: \r\n%GPS: $GPGGA,104229.000,0000.0000,N,00000.0000,E,1,09,1.0,0.00,M,,,,0000*3B\r\n$GPRMC,104229.000,A,0000.0000,N,00000.0000,E,0.00,000.00,161014,,,A*61\r\n\r\nOK\r\n
[ 10:42:29.704 ] [21:INFO] fix req
[ 10:42:29.704 ] [21:INFO] next run in 25
[ 10:42:29.705 ] [21:INFO] check start
[ 10:42:29.710 ] [21:INFO] check done in 0 seconds
[ 10:42:30.308 ] [27:INFO] cmd: ATS89?*47C6
[ 10:42:30.310 ] [27:INFO] res: \r\n001\r\n\r\nOK\r\n
[ 10:42:30.311 ] [27:INFO] cmd: AT%GPS=30,2,"RMC","GGA"*D90A
[ 10:42:30.315 ] [27:INFO] res: \r\n%GPS: $GPGGA,104230.000,0000.0000,N,00000.0000,E,1,09,1.0,0.00,M,,,,0000*33\r\n$GPRMC,104230.000,A,0000.0000,N,00000.0000,E,0.00,000.00,161014,,,A*69\r\n\r\nOK\r\n
[ 10:42:31.322 ] [27:INFO] cmd: ATS89?*47C6
[ 10:42:31.324 ] [27:INFO] res: \r\n001\r\n\r\nOK\r\n
[ 10:42:31.325 ] [27:INFO] cmd: AT%GPS=30,2,"RMC","GGA"*D90A
[ 10:42:31.328 ] [27:INFO] res: \r\n%GPS: $GPGGA,104231.000,0000.0000,N,00000.0000,E,1,09,1.0,0.00,M,,,,0000*32\r\n$GPRMC,104231.000,A,0000.0000,N,00000.0000,E,0.00,000.00,161014,,,A*68\r\n\r\nOK\r\n
[ 10:42:32.336 ] [27:INFO] cmd: ATS89?*47C6
[ 10:42:32.338 ] [27:INFO] res: \r\n001\r\n\r\nOK\r\n
[ 10:42:32.339 ] [27:INFO] cmd: AT%GPS=30,2,"RMC","GGA"*D90A
[ 10:42:32.342 ] [27:INFO] res: \r\n%GPS: $GPGGA,104232.000,0000.0000,N,00000.0000,E,1,09,1.0,0.00,M,,,,0000*31\r\n$GPRMC,104232.000,A,0000.0000,N,00000.0000,E,0.00,000.00,161014,,,A*6B\r\n\r\nOK\r\n
[ 10:42:33.351 ] [27:INFO] cmd: ATS89?*47C6
[ 10:42:33.352 ] [27:INFO] res: \r\n001\r\n\r\nOK\r\n
[ 10:42:33.353 ] [27:INFO] cmd: AT%GPS=30,2,"RMC","GGA"*D90A
[ 10:42:33.356 ] [27:INFO] res: \r\n%GPS: $GPGGA,104233.000,0000.0000,N,00000.0000,E,1,09,1.0,0.00,M,,,,0000*30\r\n$GPRMC,104233.000,A,0000.0000,N,00000.0000,E,0.00,000.00,161014,,,A*6A\r\n\r\nOK\r\n
[ 10:42:34.363 ] [27:INFO] cmd: ATS89?*47C6
[ 10:42:34.365 ] [27:INFO] res: \r\n001\r\n\r\nOK\r\n
[ 10:42:34.366 ] [27:INFO] cmd: AT%GPS=30,2,"RMC","GGA"*D90A
[ 10:42:34.373 ] [27:INFO] res: \r\n%GPS: $GPGGA,104234.000,0000.0000,N,00000.0000,E,1,09,1.0,0.00,M,,,,0000*37\r\n$GPRMC,104234.000,A,0000.0000,N,00000.0000,E,0.00,000.00,161014,,,A*6D\r\n\r\nOK\r\n
[ 10:42:35.378 ] [27:INFO] cmd: ATS89?*47C6
[ 10:42:35.380 ] [27:INFO] res: \r\n001\r\n\r\nOK\r\n
[ 10:42:35.380 ] [27:INFO] cmd: AT%GPS=30,2,"RMC","GGA"*D90A
[ 10:42:35.384 ] [27:INFO] res: \r\n%GPS: $GPGGA,104235.000,0000.0000,N,00000.0000,E,1,09,1.0,0.00,M,,,,0000*36\r\n$GPRMC,104235.000,A,0000.0000,N,00000.0000,E,0.00,000.00,161014,,,A*6C\r\n\r\nOK\r\n
[ 10:42:36.392 ] [27:INFO] cmd: ATS89?*47C6
[ 10:42:36.395 ] [27:INFO] res: \r\n001\r\n\r\nOK\r\n
[ 10:42:36.395 ] [27:INFO] cmd: AT%GPS=30,2,"RMC","GGA"*D90A
[ 10:42:36.398 ] [27:INFO] res: \r\n%GPS: $GPGGA,104236.000,0000.0000,N,00000.0000,E,1,09,1.0,0.00,M,,,,0000*35\r\n$GPRMC,104236.000,A,0000.0000,N,00000.0000,E,0.00,000.00,161014,,,A*6F\r\n\r\nOK\r\n
[ 10:42:37.406 ] [27:INFO] cmd: ATS89?*47C6
[ 10:42:37.408 ] [27:INFO] res: \r\n001\r\n\r\nOK\r\n
[ 10:42:37.408 ] [27:INFO] cmd: AT%GPS=30,2,"RMC","GGA"*D90A
[ 10:42:37.411 ] [27:INFO] res: \r\n%GPS: $GPGGA,104237.000,0000.0000,N,00000.0000,E,1,09,1.0,0.00,M,,,,0000*34\r\n$GPRMC,104237.000,A,0000.0000,N,00000.0000,E,0.00,000.00,161014,,,A*6E\r\n\r\nOK\r\n
[ 10:42:38.419 ] [27:INFO] cmd: ATS89?*47C6
[ 10:42:38.422 ] [27:INFO] res: \r\n001\r\n\r\nOK\r\n
[ 10:42:38.423 ] [27:INFO] cmd: AT%GPS=30,2,"RMC","GGA"*D90A
[ 10:42:38.426 ] [27:INFO] res: \r\n%GPS: $GPGGA,104238.000,0000.0000,N,00000.0000,E,1,09,1.0,0.00,M,,,,0000*3B\r\n$GPRMC,104238.000,A,0000.0000,N,00000.0000,E,0.00,000.00,161014,,,A*61\r\n\r\nOK\r\n
[ 10:42:39.433 ] [27:INFO] cmd: ATS89?*47C6
[ 10:42:39.435 ] [27:INFO] res: \r\n001\r\n\r\nOK\r\n
[ 10:42:39.436 ] [27:INFO] cmd: AT%GPS=30,2,"RMC","GGA"*D90A
[ 10:42:39.439 ] [27:INFO] res: \r\n%GPS: $GPGGA,104239.000,0000.0000,N,00000.0000,E,1,09,1.0,0.00,M,,,,0000*3A\r\n$GPRMC,104239.000,A,0000.0000,N,00000.0000,E,0.00,000.00,161014,,,A*60\r\n\r\nOK\r\n
[ 10:42:40.447 ] [27:INFO] cmd: ATS89?*47C6
[ 10:42:40.449 ] [27:INFO] res: \r\n001\r\n\r\nOK\r\n
[ 10:42:40.449 ] [27:INFO] cmd: AT%GPS=30,2,"RMC","GGA"*D90A
[ 10:42:40.452 ] [27:INFO] res: \r\n%GPS: $GPGGA,104240.000,0000.0000,N,00000.0000,E,1,09,1.0,0.00,M,,,,0000*34\r\n$GPRMC,104240.000,A,0000.0000,N,00000.0000,E,0.00,000.00,161014,,,A*6E\r\n\r\nOK\r\n
[ 10:42:41.462 ] [27:INFO] cmd: ATS89?*47C6
[ 10:42:41.466 ] [27:INFO] res: \r\n001\r\n\r\nOK\r\n
[ 10:42:41.466 ] [27:INFO] cmd: AT%GPS=30,2,"RMC","GGA"*D90A
[ 10:42:41.469 ] [27:INFO] res: \r\n%GPS: $GPGGA,104241.000,0000.0000,N,00000.0000,E,1,09,1.0,0.00,M,,,,0000*35\r\n$GPRMC,104241.000,A,0000.0000,N,00000.0000,E,0.00,000.00,161014,,,A*6F\r\n\r\nOK\r\n
[ 10:42:42.475 ] [27:INFO] cmd: ATS89?*47C6
[ 10:42:42.477 ] [27:INFO] res: \r\n001\r\n\r\nOK\r\n
[ 10:42:42.478 ] [27:INFO] cmd: AT%GPS=30,2,"RMC","GGA"*D90A
[ 10:42:42.481 ] [27:INFO] res: \r\n%GPS: $GPGGA,104242.000,0000.0000,N,00000.0000,E,1,09,1.0,0.00,M,,,,0000*36\r\n$GPRMC,104242.000,A,0000.0000,N,00000.0000,E,0.00,000.00,161014,,,A*6C\r\n\r\nOK\r\n
[ 10:42:43.490 ] [27:INFO] cmd: ATS89?*47C6
[ 10:42:43.492 ] [27:INFO] res: \r\n001\r\n\r\nOK\r\n
[ 10:42:43.492 ] [27:INFO] cmd: AT%GPS=30,2,"RMC","GGA"*D90A
[ 10:42:43.495 ] [27:INFO] res: \r\n%GPS: $GPGGA,104243.000,0000.0000,N,00000.0000,E,1,09,1.0,0.00,M,,,,0000*37\r\n$GPRMC,104243.000,A,0000.0000,N,00000.0000,E,0.00,000.00,161014,,,A*6D\r\n\r\nOK\r\n
[ 10:42:44.503 ] [27:INFO] cmd: ATS89?*47C6
[ 10:42:44.505 ] [27:INFO] res: \r\n001\r\n\r\nOK\r\n
[ 10:42:44.506 ] [27:INFO] cmd: AT%GPS=30,2,"RMC","GGA"*D90A
[ 10:42:44.509 ] [27:INFO] res: \r\n%GPS: $GPGGA,104244.000,0000.0000,N,00000.0000,E,1,09,1.0,0.00,M,,,,0000*30\r\n$GPRMC,104244.000,A,0000.0000,N,00000.0000,E,0.00,000.00,161014,,,A*6A\r\n\r\nOK\r\n
[ 10:42:45.519 ] [27:INFO] cmd: ATS89?*47C6
[ 10:42:45.520 ] [27:INFO] res: \r\n001\r\n\r\nOK\r\n
[ 10:42:45.521 ] [27:INFO] cmd: AT%GPS=30,2,"RMC","GGA"*D90A
[ 10:42:45.524 ] [27:INFO] res: \r\n%GPS: $GPGGA,104245.000,0000.0000,N,00000.0000,E,1,09,1.0,0.00,M,,,,0000*31\r\n$GPRMC,104245.000,A,0000.0000,N,00000.0000,E,0.00,000.00,161014,,,A*6B\r\n\r\nOK\r\n
[ 10:42:46.533 ] [27:INFO] cmd: ATS89?*47C6
[ 10:42:46.540 ] [27:INFO] res: \r\n001\r\n\r\nOK\r\n
[ 10:42:46.540 ] [27:INFO] cmd: AT%GPS=30,2,"RMC","GGA"*D90A
[ 10:42:46.544 ] [27:INFO] res: \r\n%GPS: $GPGGA,104246.000,0000.0000,N,00000.0000,E,1,09,1.0,0.00,M,,,,0000*32\r\n$GPRMC,104246.000,A,0000.0000,N,00000.0000,E,0.00,000.00,161014,,,A*68\r\n\r\nOK\r\n
[ 10:42:47.547 ] [27:INFO] cmd: ATS89?*47C6
[ 10:42:47.549 ] [27:INFO] res: \r\n001\r\n\r\nOK\r\n
[ 10:42:47.549 ] [27:INFO] cmd: AT%GPS=30,2,"RMC","GGA"*D90A
[ 10:42:47.555 ] [27:INFO] res: \r\n%GPS: $GPGGA,104247.000,0000.0000,N,00000.0000,E,1,09,1.0,0.00,M,,,,0000*33\r\n$GPRMC,104247.000,A,0000.0000,N,00000.0000,E,0.00,000.00,161014,,,A*69\r\n\r\nOK\r\n
[ 10:42:48.560 ] [27:INFO] cmd: ATS89?*47C6
[ 10:42:48.563 ] [27:INFO] res: \r\n001\r\n\r\nOK\r\n
[ 10:42:48.563 ] [27:INFO] cmd: AT%GPS=30,2,"RMC","GGA"*D90A
[ 10:42:48.567 ] [27:INFO] res: \r\n%GPS: $GPGGA,104248.000,0000.0000,N,00000.0000,E,1,09,1.0,0.00,M,,,,0000*3C\r\n$GPRMC,104248.000,A,0000.0000,N,00000.0000,E,0.00,000.00,161014,,,A*66\r\n\r\nOK\r\n
[ 10:42:49.575 ] [27:INFO] cmd: ATS89?*47C6
[ 10:42:49.577 ] [27:INFO] res: \r\n001\r\n\r\nOK\r\n
[ 10:42:49.577 ] [27:INFO] cmd: AT%GPS=30,2,"RMC","GGA"*D90A
[ 10:42:49.580 ] [27:INFO] res: \r\n%GPS: $GPGGA,104249.000,0000.0000,N,00000.0000,E,1,09,1.0,0.00,M,,,,0000*3D\r\n$GPRMC,104249.000,A,0000.0000,N,00000.0000,E,0.00,000.00,161014,,,A*67\r\n\r\nOK\r\n
[ 10:42:50.588 ] [27:INFO] cmd: ATS89?*47C6
[ 10:42:50.590 ] [27:INFO] res: \r\n001\r\n\r\nOK\r\n
[ 10:42:50.591 ] [27:INFO] cmd: AT%GPS=30,2,"RMC","GGA"*D90A
[ 10:42:50.594 ] [27:INFO] res: \r\n%GPS: $GPGGA,104250.000,0000.0000,N,00000.0000,E,1,09,1.0,0.00,M,,,,0000*35\r\n$GPRMC,104250.000,A,0000.0000,N,00000.0000,E,0.00,000.00,161014,,,A*6F\r\n\r\nOK\r\n
[ 10:42:51.603 ] [27:INFO] cmd: ATS89?*47C6
[ 10:42:51.604 ] [27:INFO] res: \r\n001\r\n\r\nOK\r\n
[ 10:42:51.605 ] [27:INFO] cmd: AT%GPS=30,2,"RMC","GGA"*D90A
[ 10:42:51.608 ] [27:INFO] res: \r\n%GPS: $GPGGA,104251.000,0000.0000,N,00000.0000,E,1,09,1.0,0.00,M,,,,0000*34\r\n$GPRMC,104251.000,A,0000.0000,N,00000.0000,E,0.00,000.00,161014,,,A*6E\r\n\r\nOK\r\n
[ 10:42:52.616 ] [27:INFO] cmd: ATS89?*47C6
[ 10:42:52.618 ] [27:INFO] res: \r\n001\r\n\r\nOK\r\n
[ 10:42:52.618 ] [27:INFO] cmd: AT%GPS=30,2,"RMC","GGA"*D90A
[ 10:42:52.621 ] [27:INFO] res: \r\n%GPS: $GPGGA,104252.000,0000.0000,N,00000.0000,E,1,09,1.0,0.00,M,,,,0000*37\r\n$GPRMC,104252.000,A,0000.0000,N,00000.0000,E,0.00,000.00,161014,,,A*6D\r\n\r\nOK\r\n
[ 10:42:53.631 ] [27:INFO] cmd: ATS89?*47C6
[ 10:42:53.632 ] [27:INFO] res: \r\n001\r\n\r\nOK\r\n
[ 10:42:53.633 ] [27:INFO] cmd: AT%GPS=30,2,"RMC","GGA"*D90A
[ 10:42:53.636 ] [27:INFO] res: \r\n%GPS: $GPGGA,104253.000,0000.0000,N,00000.0000,E,1,09,1.0,0.00,M,,,,0000*36\r\n$GPRMC,104253.000,A,0000.0000,N,00000.0000,E,0.00,000.00,161014,,,A*6C\r\n\r\nOK\r\n
[ 10:42:54.641 ] [21:INFO] fix req
[ 10:42:54.641 ] [21:INFO] next run in 25
[ 10:42:54.642 ] [21:INFO] check start
[ 10:42:54.649 ] [21:INFO] check done in 0 seconds
[ 10:42:54.649 ] [27:INFO] cmd: ATS89?*47C6
[ 10:42:54.651 ] [27:INFO] res: \r\n001\r\n\r\nOK\r\n
[ 10:42:54.652 ] [27:INFO] cmd: AT%GPS=30,2,"RMC","GGA"*D90A
[ 10:42:54.655 ] [27:INFO] res: \r\n%GPS: $GPGGA,104254.000,0000.0000,N,00000.0000,E,1,09,1.0,0.00,M,,,,0000*31\r\n$GPRMC,104254.000,A,0000.0000,N,00000.0000,E,0.00,000.00,161014,,,A*6B\r\n\r\nOK\r\n
[ 10:42:55.658 ] [27:INFO] cmd: ATS89?*47C6
[ 10:42:55.659 ] [27:INFO] res: \r\n001\r\n\r\nOK\r\n
[ 10:42:55.660 ] [27:INFO] cmd: AT%GPS=30,2,"RMC","GGA"*D90A
[ 10:42:55.663 ] [27:INFO] res: \r\n%GPS: $GPGGA,104255.000,0000.0000,N,00000.0000,E,1,09,1.0,0.00,M,,,,0000*30\r\n$GPRMC,104255.000,A,0000.0000,N,00000.0000,E,0.00,000.00,161014,,,A*6A\r\n\r\nOK\r\n
[ 10:42:56.671 ] [27:INFO] cmd: ATS89?*47C6
[ 10:42:56.673 ] [27:INFO] res: \r\n001\r\n\r\nOK\r\n
[ 10:42:56.674 ] [27:INFO] cmd: AT%GPS=30,2,"RMC","GGA"*D90A
[ 10:42:56.676 ] [27:INFO] res: \r\n%GPS: $GPGGA,104256.000,0000.0000,N,00000.0000,E,1,09,1.0,0.00,M,,,,0000*33\r\n$GPRMC,104256.000,A,0000.0000,N,00000.0000,E,0.00,000.00,161014,,,A*69\r\n\r\nOK\r\n
[ 10:42:57.685 ] [27:INFO] cmd: ATS89?*47C6
[ 10:42:57.691 ] [27:INFO] res: \r\n001\r\n\r\nOK\r\n
[ 10:42:57.691 ] [27:INFO] cmd: AT%GPS=30,2,"RMC","GGA"*D90A
[ 10:42:57.695 ] [27:INFO] res: \r\n%GPS: $GPGGA,104257.000,0000.0000,N,00000.0000,E,1,09,1.0,0.00,M,,,,0000*32\r\n$GPRMC,104257.000,A,0000.0000,N,00000.0000,E,0.00,000.00,161014,,,A*68\r\n\r\nOK\r\n
[ 10:42:58.699 ] [27:INFO] cmd: ATS89?*47C6
[ 10:42:58.701 ] [27:INFO] res: \r\n001\r\n\r\nOK\r\n
[ 10:42:58.702 ] [27:INFO] cmd: AT%GPS=30,2,"RMC","GGA"*D90A
[ 10:42:58.705 ] [27:INFO] res: \r\n%GPS: $GPGGA,104258.000,0000.0000,N,00000.0000,E,1,09,1.0,0.00,M,,,,0000*3D\r\n$GPRMC,104258.000,A,0000.0000,N,00000.0000,E,0.00,000.00,161014,,,A*67\r\n\r\nOK\r\n
[ 10:42:59.713 ] [27:INFO] cmd: ATS89?*47C6
[ 10:42:59.716 ] [27:INFO] res: \r\n001\r\n\r\nOK\r\n
[ 10:42:59.716 ] [27:INFO] cmd: AT%GPS=30,2,"RMC","GGA"*D90A
[ 10:42:59.719 ] [27:INFO] res: \r\n%GPS: $GPGGA,104259.000,0000.0000,N,00000.0000,E,1,09,1.0,0.00,M,,,,0000*3C\r\n$GPRMC,104259.000,A,0000.0000,N,00000.0000,E,0.00,000.00,161014,,,A*66\r\n\r\nOK\r\n
[ 10:43:00.727 ] [27:INFO] cmd: ATS89?*47C6
[ 10:43:00.729 ] [27:INFO] res: \r\n001\r\n\r\nOK\r\n
[ 10:43:00.730 ] [27:INFO] cmd: AT%GPS=30,2,"RMC","GGA"*D90A
[ 10:43:00.733 ] [27:INFO] res: \r\n%GPS: $GPGGA,104300.000,0000.0000,N,00000.0000,E,1,09,1.0,0.00,M,,,,0000*31\r\n$GPRMC,104300.000,A,0000.0000,N,00000.0000,E,0.00,000.00,161014,,,A*6B\r\n\r\nOK\r\n
[ 10:43:01.742 ] [27:INFO] cmd: ATS89?*47C6
[ 10:43:01.743 ] [27:INFO] res: \r\n001\r\n\r\nOK\r\n
[ 10:43:01.744 ] [27:INFO] cmd: AT%GPS=30,2,"RMC","GGA"*D90A
[ 10:43:01.747 ] [27:INFO] res: \r\n%GPS: $GPGGA,104301.000,0000.0000,N,00000.0000,E,1,09,1.0,0.00,M,,,,0000*30\r\n$GPRMC,104301.000,A,0000.0000,N,00000.0000,E,0.00,000.00,161014,,,A*6A\r\n\r\nOK\r\n
[ 10:43:02.756 ] [27:INFO] cmd: ATS89?*47C6
[ 10:43:02.759 ] [27:INFO] res: \r\n001\r\n\r\nOK\r\n
[ 10:43:02.759 ] [27:INFO] cmd: AT%GPS=30,2,"RMC","GGA"*D90A
[ 10:43:02.762 ] [27:INFO] res: \r\n%GPS: $GPGGA,104302.000,0000.0000,N,00000.0000,E,1,09,1.0,0.00,M,,,,0000*33\r\n$GPRMC,104302.000,A,0000.0000,N,00000.0000,E,0.00,000.00,161014,,,A*69\r\n\r\nOK\r\n
[ 10:43:03.771 ] [27:INFO] cmd: ATS89?*47C6
[ 10:43:03.773 ] [27:INFO] res: \r\n001\r\n\r\nOK\r\n
[ 10:43:03.773 ] [27:INFO] cmd: AT%GPS=30,2,"RMC","GGA"*D90A
[ 10:43:03.776 ] [27:INFO] res: \r\n%GPS: $GPGGA,104303.000,0000.0000,N,00000.0000,E,1,09,1.0,0.00,M,,,,0000*32\r\n$GPRMC,104303.000,A,0000.0000,N,00000.0000,E,0.00,000.00,161014,,,A*68\r\n\r\nOK\r\n
[ 10:43:04.785 ] [27:INFO] cmd: ATS89?*47C6
[ 10:43:04.787 ] [27:INFO] res: \r\n001\r\n\r\nOK\r\n
[ 10:43:04.788 ] [27:INFO] cmd: AT%GPS=30,2,"RMC","GGA"*D90A
[ 10:43:04.792 ] [27:INFO] res: \r\n%GPS: $GPGGA,104304.000,0000.0000,N,00000.0000,E,1,09,1.0,0.00,M,,,,0000*35\r\n$GPRMC,104304.000,A,0000.0000,N,00000.0000,E,0.00,000.00,161014,,,A*6F\r\n\r\nOK\r\n
[ 10:43:05.799 ] [27:INFO] cmd: ATS89?*47C6
[ 10:43:05.801 ] [27:INFO] res: \r\n001\r\n\r\nOK\r\n
[ 10:43:05.801 ] [27:INFO] cmd: AT%GPS=30,2,"RMC","GGA"*D90A
[ 10:43:05.804 ] [27:INFO] res: \r\n%GPS: $GPGGA,104305.000,0000.0000,N,00000.0000,E,1,09,1.0,0.00,M,,,,0000*34\r\n$GPRMC,104305.000,A,0000.0000,N,00000.0000,E,0.00,000.00,161014,,,A*6E\r\n\r\nOK\r\n
[ 10:43:06.812 ] [27:INFO] cmd: ATS89?*47C6
[ 10:43:06.842 ] [27:INFO] res: \r\n001\r\n\r\nOK\r\n
[ 10:43:06.843 ] [27:INFO] cmd: AT%GPS=30,2,"RMC","GGA"*D90A
[ 10:43:06.848 ] [27:INFO] res: \r\n%GPS: $GPGGA,104306.000,0000.0000,N,00000.0000,E,1,09,1.0,0.00,M,,,,0000*37\r\n$GPRMC,104306.000,A,0000.0000,N,00000.0000,E,0.00,000.00,161014,,,A*6D\r\n\r\nOK\r\n
[ 10:43:07.828 ] [27:INFO] cmd: ATS89?*47C6
[ 10:43:07.832 ] [27:INFO] res: \r\n001\r\n\r\nOK\r\n
[ 10:43:07.833 ] [27:INFO] cmd: AT%GPS=30,2,"RMC","GGA"*D90A
[ 10:43:07.838 ] [27:INFO] res: \r\n%GPS: $GPGGA,104307.000,0000.0000,N,00000.0000,E,1,09,1.0,0.00,M,,,,0000*36\r\n$GPRMC,104307.000,A,0000.0000,N,00000.0000,E,0.00,000.00,161014,,,A*6C\r\n\r\nOK\r\n
[ 10:43:08.839 ] [27:INFO] cmd: ATS89?*47C6
[ 10:43:08.841 ] [27:INFO] res: \r\n001\r\n\r\nOK\r\n
[ 10:43:08.842 ] [27:INFO] cmd: AT%GPS=30,2,"RMC","GGA"*D90A
[ 10:43:08.846 ] [27:INFO] res: \r\n%GPS: $GPGGA,104308.000,0000.0000,N,00000.0000,E,1,09,1.0,0.00,M,,,,0000*39\r\n$GPRMC,104308.000,A,0000.0000,N,00000.0000,E,0.00,000.00,161014,,,A*63\r\n\r\nOK\r\n
[ 10:43:09.854 ] [27:INFO] cmd: ATS89?*47C6
[ 10:43:09.856 ] [27:INFO] res: \r\n001\r\n\r\nOK\r\n
[ 10:43:09.856 ] [27:INFO] cmd: AT%GPS=30,2,"RMC","GGA"*D90A
[ 10:43:09.859 ] [27:INFO] res: \r\n%GPS: $GPGGA,104309.000,0000.0000,N,00000.0000,E,1,09,1.0,0.00,M,,,,0000*38\r\n$GPRMC,104309.000,A,0000.0000,N,00000.0000,E,0.00,000.00,161014,,,A*62\r\n\r\nOK\r\n
[ 10:43:10.867 ] [27:INFO] cmd: ATS89?*47C6
[ 10:43:10.874 ] [27:INFO] res: \r\n001\r\n\r\nOK\r\n
[ 10:43:10.874 ] [27:INFO] cmd: AT%GPS=30,2,"RMC","GGA"*D90A
[ 10:43:10.877 ] [27:INFO] res: \r\n%GPS: $GPGGA,104310.000,0000.0000,N,00000.0000,E,1,09,1.0,0.00,M,,,,0000*30\r\n$GPRMC,104310.000,A,0000.0000,N,00000.0000,E,0.00,000.00,161014,,,A*6A\r\n\r\nOK\r\n
[ 10:43:11.882 ] [27:INFO] cmd: ATS89?*47C6
[ 10:43:11.883 ] [27:INFO] res: \r\n001\r\n\r\nOK\r\n
[ 10:43:11.884 ] [27:INFO] cmd: AT%GPS=30,2,"RMC","GGA"*D90A
[ 10:43:11.888 ] [27:INFO] res: \r\n%GPS: $GPGGA,104311.000,0000.0000,N,00000.0000,E,1,09,1.0,0.00,M,,,,0000*31\r\n$GPRMC,104311.000,A,0000.0000,N,00000.0000,E,0.00,000.00,161014,,,A*6B\r\n\r\nOK\r\n
[ 10:43:12.896 ] [27:INFO] cmd: ATS89?*47C6
[ 10:43:12.898 ] [27:INFO] res: \r\n001\r\n\r\nOK\r\n
[ 10:43:12.899 ] [27:INFO] cmd: AT%GPS=30,2,"RMC","GGA"*D90A
[ 10:43:12.908 ] [27:INFO] res: \r\n%GPS: $GPGGA,104312.000,0000.0000,N,00000.0000,E,1,09,1.0,0.00,M,,,,0000*32\r\n$GPRMC,104312.000,A,0000.0000,N,00000.0000,E,0.00,000.00,161014,,,A*68\r\n\r\nOK\r\n
[ 10:43:13.910 ] [27:INFO] cmd: ATS89?*47C6
[ 10:43:13.912 ] [27:INFO] res: \r\n001\r\n\r\nOK\r\n
[ 10:43:13.912 ] [27:INFO] cmd: AT%GPS=30,2,"RMC","GGA"*D90A
[ 10:43:13.916 ] [27:INFO] res: \r\n%GPS: $GPGGA,104313.000,0000.0000,N,00000.0000,E,1,09,1.0,0.00,M,,,,0000*33\r\n$GPRMC,104313.000,A,0000.0000,N,00000.0000,E,0.00,000.00,161014,,,A*69\r\n\r\nOK\r\n
[ 10:43:14.923 ] [27:INFO] cmd: ATS89?*47C6
[ 10:43:14.925 ] [27:INFO] res: \r\n001\r\n\r\nOK\r\n
[ 10:43:14.926 ] [27:INFO] cmd: AT%GPS=30,2,"RMC","GGA"*D90A
[ 10:43:14.929 ] [27:INFO] res: \r\n%GPS: $GPGGA,104314.000,0000.0000,N,00000.0000,E,1,09,1.0,0.00,M,,,,0000*34\r\n$GPRMC,104314.000,A,0000.0000,N,00000.0000,E,0.00,000.00,161014,,,A*6E\r\n\r\nOK\r\n
[ 10:43:15.938 ] [27:INFO] cmd: ATS89?*47C6
[ 10:43:15.940 ] [27:INFO] res: \r\n001\r\n\r\nOK\r\n
[ 10:43:15.941 ] [27:INFO] cmd: AT%GPS=30,2,"RMC","GGA"*D90A
[ 10:43:15.959 ] [27:INFO] res: \r\n%GPS: $GPGGA,104315.000,0000.0000,N,00000.0000,E,1,09,1.0,0.00,M,,,,0000*35\r\n$GPRMC,104315.000,A,0000.0000,N,00000.0000,E,0.00,000.00,161014,,,A*6F\r\n\r\nOK\r\n
[ 10:43:16.951 ] [27:INFO] cmd: ATS89?*47C6
[ 10:43:16.953 ] [27:INFO] res: \r\n001\r\n\r\nOK\r\n
[ 10:43:16.954 ] [27:INFO] cmd: AT%GPS=30,2,"RMC","GGA"*D90A
[ 10:43:16.957 ] [27:INFO] res: \r\n%GPS: $GPGGA,104316.000,0000.0000,N,00000.0000,E,1,09,1.0,0.00,M,,,,0000*36\r\n$GPRMC,104316.000,A,0000.0000,N,00000.0000,E,0.00,000.00,161014,,,A*6C\r\n\r\nOK\r\n
[ 10:43:17.966 ] [27:INFO] cmd: ATS89?*47C6
[ 10:43:17.973 ] [27:INFO] res: \r\n001\r\n\r\nOK\r\n
[ 10:43:17.973 ] [27:INFO] cmd: AT%GPS=30,2,"RMC","GGA"*D90A
[ 10:43:17.976 ] [27:INFO] res: \r\n%GPS: $GPGGA,104317.000,0000.0000,N,00000.0000,E,1,09,1.0,0.00,M,,,,0000*37\r\n$GPRMC,104317.000,A,0000.0000,N,00000.0000,E,0.00,000.00,161014,,,A*6D\r\n\r\nOK\r\n
[ 10:43:18.980 ] [27:INFO] cmd: ATS89?*47C6
[ 10:43:18.984 ] [27:INFO] res: \r\n001\r\n\r\nOK\r\n
[ 10:43:18.984 ] [27:INFO] cmd: AT%GPS=30,2,"RMC","GGA"*D90A
[ 10:43:18.988 ] [27:INFO] res: \r\n%GPS: $GPGGA,104318.000,0000.0000,N,00000.0000,E,1,09,1.0,0.00,M,,,,0000*38\r\n$GPRMC,104318.000,A,0000.0000,N,00000.0000,E,0.00,000.00,161014,,,A*62\r\n\r\nOK\r\n
[ 10:43:19.602 ] [21:INFO] fix req
[ 10:43:19.602 ] [21:INFO] next run in 25
[ 10:43:19.608 ] [21:INFO] check start
[ 10:43:19.614 ] [21:INFO] check done in 0 seconds
[ 10:43:19.995 ] [27:INFO] cmd: ATS89?*47C6
[ 10:43:19.996 ] [27:INFO] res: \r\n001\r\n\r\nOK\r\n
[ 10:43:19.999 ] [27:INFO] cmd: AT%GPS=30,2,"RMC","GGA"*D90A
[ 10:43:20.007 ] [27:INFO] res: \r\n%GPS: $GPGGA,104320.000,0000.0000,N,00000.0000,E,1,09,1.0,0.00,M,,,,0000*33\r\n$GPRMC,104320.000,A,0000.0000,N,00000.0000,E,0.00,000.00,161014,,,A*69\r\n\r\nOK\r\n
[ 10:43:21.011 ] [27:INFO] cmd: ATS89?*47C6
[ 10:43:21.013 ] [27:INFO] res: \r\n001\r\n\r\nOK\r\n
[ 10:43:21.014 ] [27:INFO] cmd: AT%GPS=30,2,"RMC","GGA"*D90A
[ 10:43:21.017 ] [27:INFO] res: \r\n%GPS: $GPGGA,104321.000,0000.0000,N,00000.0000,E,1,09,1.0,0.00,M,,,,0000*32\r\n$GPRMC,104321.000,A,0000.0000,N,00000.0000,E,0.00,000.00,161014,,,A*68\r\n\r\nOK\r\n
[ 10:43:22.023 ] [27:INFO] cmd: ATS89?*47C6
[ 10:43:22.024 ] [27:INFO] res: \r\n001\r\n\r\nOK\r\n
[ 10:43:22.025 ] [27:INFO] cmd: AT%GPS=30,2,"RMC","GGA"*D90A
[ 10:43:22.033 ] [27:INFO] res: \r\n%GPS: $GPGGA,104322.000,0000.0000,N,00000.0000,E,1,09,1.0,0.00,M,,,,0000*31\r\n$GPRMC,104322.000,A,0000.0000,N,00000.0000,E,0.00,000.00,161014,,,A*6B\r\n\r\nOK\r\n
[ 10:43:23.037 ] [27:INFO] cmd: ATS89?*47C6
[ 10:43:23.040 ] [27:INFO] res: \r\n001\r\n\r\nOK\r\n
[ 10:43:23.043 ] [27:INFO] cmd: AT%GPS=30,2,"RMC","GGA"*D90A
[ 10:43:23.046 ] [27:INFO] res: \r\n%GPS: $GPGGA,104323.000,0000.0000,N,00000.0000,E,1,09,1.0,0.00,M,,,,0000*30\r\n$GPRMC,104323.000,A,0000.0000,N,00000.0000,E,0.00,000.00,161014,,,A*6A\r\n\r\nOK\r\n
[ 10:43:24.051 ] [27:INFO] cmd: ATS89?*47C6
[ 10:43:24.053 ] [27:INFO] res: \r\n001\r\n\r\nOK\r\n
[ 10:43:24.053 ] [27:INFO] cmd: AT%GPS=30,2,"RMC","GGA"*D90A
[ 10:43:24.056 ] [27:INFO] res: \r\n%GPS: $GPGGA,104324.000,0000.0000,N,00000.0000,E,1,09,1.0,0.00,M,,,,0000*37\r\n$GPRMC,104324.000,A,0000.0000,N,00000.0000,E,0.00,000.00,161014,,,A*6D\r\n\r\nOK\r\n
[ 10:43:25.064 ] [27:INFO] cmd: ATS89?*47C6
[ 10:43:25.065 ] [27:INFO] res: \r\n001\r\n\r\nOK\r\n
[ 10:43:25.071 ] [27:INFO] cmd: AT%GPS=30,2,"RMC","GGA"*D90A
[ 10:43:25.074 ] [27:INFO] res: \r\n%GPS: $GPGGA,104325.000,0000.0000,N,00000.0000,E,1,09,1.0,0.00,M,,,,0000*36\r\n$GPRMC,104325.000,A,0000.0000,N,00000.0000,E,0.00,000.00,161014,,,A*6C\r\n\r\nOK\r\n
[ 10:43:26.084 ] [27:INFO] cmd: ATS89?*47C6
[ 10:43:26.091 ] [27:INFO] res: \r\n001\r\n\r\nOK\r\n
[ 10:43:26.100 ] [27:INFO] cmd: AT%GPS=30,2,"RMC","GGA"*D90A
[ 10:43:26.103 ] [27:INFO] res: \r\n%GPS: $GPGGA,104326.000,0000.0000,N,00000.0000,E,1,09,1.0,0.00,M,,,,0000*35\r\n$GPRMC,104326.000,A,0000.0000,N,00000.0000,E,0.00,000.00,161014,,,A*6F\r\n\r\nOK\r\n
[ 10:43:27.092 ] [27:INFO] cmd: ATS89?*47C6
[ 10:43:27.095 ] [27:INFO] res: \r\n001\r\n\r\nOK\r\n
[ 10:43:27.096 ] [27:INFO] cmd: AT%GPS=30,2,"RMC","GGA"*D90A
[ 10:43:27.100 ] [27:INFO] res: \r\n%GPS: $GPGGA,104327.000,0000.0000,N,00000.0000,E,1,09,1.0,0.00,M,,,,0000*34\r\n$GPRMC,104327.000,A,0000.0000,N,00000.0000,E,0.00,000.00,161014,,,A*6E\r\n\r\nOK\r\n
[ 10:43:28.109 ] [27:INFO] cmd: ATS89?*47C6
[ 10:43:28.111 ] [27:INFO] res: \r\n001\r\n\r\nOK\r\n
[ 10:43:28.111 ] [27:INFO] cmd: AT%GPS=30,2,"RMC","GGA"*D90A
[ 10:43:28.114 ] [27:INFO] res: \r\n%GPS: $GPGGA,104328.000,0000.0000,N,00000.0000,E,1,09,1.0,0.00,M,,,,0000*3B\r\n$GPRMC,104328.000,A,0000.0000,N,00000.0000,E,0.00,000.00,161014,,,A*61\r\n\r\nOK\r\n
[ 10:43:29.119 ] [27:INFO] cmd: ATS89?*47C6
[ 10:43:29.121 ] [27:INFO] res: \r\n001\r\n\r\nOK\r\n
[ 10:43:29.122 ] [27:INFO] cmd: AT%GPS=30,2,"RMC","GGA"*D90A
[ 10:43:29.125 ] [27:INFO] res: \r\n%GPS: $GPGGA,104329.000,0000.0000,N,00000.0000,E,1,09,1.0,0.00,M,,,,0000*3A\r\n$GPRMC,104329.000,A,0000.0000,N,00000.0000,E,0.00,000.00,161014,,,A*60\r\n\r\nOK\r\n
[ 10:43:30.141 ] [27:INFO] cmd: ATS89?*47C6
[ 10:43:30.153 ] [27:INFO] res: \r\n001\r\n\r\nOK\r\n
[ 10:43:30.154 ] [27:INFO] cmd: AT%GPS=30,2,"RMC","GGA"*D90A
[ 10:43:30.157 ] [27:INFO] res: \r\n%GPS: $GPGGA,104330.000,0000.0000,N,00000.0000,E,1,09,1.0,0.00,M,,,,0000*32\r\n$GPRMC,104330.000,A,0000.0000,N,00000.0000,E,0.00,000.00,161014,,,A*68\r\n\r\nOK\r\n
[ 10:43:31.147 ] [27:INFO] cmd: ATS89?*47C6
[ 10:43:31.149 ] [27:INFO] res: \r\n001\r\n\r\nOK\r\n
[ 10:43:31.149 ] [27:INFO] cmd: AT%GPS=30,2,"RMC","GGA"*D90A
[ 10:43:31.152 ] [27:INFO] res: \r\n%GPS: $GPGGA,104331.000,0000.0000,N,00000.0000,E,1,09,1.0,0.00,M,,,,0000*33\r\n$GPRMC,104331.000,A,0000.0000,N,00000.0000,E,0.00,000.00,161014,,,A*69\r\n\r\nOK\r\n
[ 10:43:32.162 ] [27:INFO] cmd: ATS89?*47C6
[ 10:43:32.164 ] [27:INFO] res: \r\n001\r\n\r\nOK\r\n
[ 10:43:32.164 ] [27:INFO] cmd: AT%GPS=30,2,"RMC","GGA"*D90A
[ 10:43:32.170 ] [27:INFO] res: \r\n%GPS: $GPGGA,104332.000,0000.0000,N,00000.0000,E,1,09,1.0,0.00,M,,,,0000*30\r\n$GPRMC,104332.000,A,0000.0000,N,00000.0000,E,0.00,000.00,161014,,,A*6A\r\n\r\nOK\r\n
[ 10:43:33.183 ] [27:INFO] cmd: ATS89?*47C6
[ 10:43:33.184 ] [27:INFO] res: \r\n001\r\n\r\nOK\r\n
[ 10:43:33.185 ] [27:INFO] cmd: AT%GPS=30,2,"RMC","GGA"*D90A
[ 10:43:33.187 ] [27:INFO] res: \r\n%GPS: $GPGGA,104333.000,0000.0000,N,00000.0000,E,1,09,1.0,0.00,M,,,,0000*31\r\n$GPRMC,104333.000,A,0000.0000,N,00000.0000,E,0.00,000.00,161014,,,A*6B\r\n\r\nOK\r\n
[ 10:43:34.190 ] [27:INFO] cmd: ATS89?*47C6
[ 10:43:34.191 ] [27:INFO] res: \r\n001\r\n\r\nOK\r\n
[ 10:43:34.192 ] [27:INFO] cmd: AT%GPS=30,2,"RMC","GGA"*D90A
[ 10:43:34.194 ] [27:INFO] res: \r\n%GPS: $GPGGA,104334.000,0000.0000,N,00000.0000,E,1,09,1.0,0.00,M,,,,0000*36\r\n$GPRMC,104334.000,A,0000.0000,N,00000.0000,E,0.00,000.00,161014,,,A*6C\r\n\r\nOK\r\n
[ 10:43:35.204 ] [27:INFO] cmd: ATS89?*47C6
[ 10:43:35.207 ] [27:INFO] res: \r\n001\r\n\r\nOK\r\n
[ 10:43:35.207 ] [27:INFO] cmd: AT%GPS=30,2,"RMC","GGA"*D90A
[ 10:43:35.212 ] [27:INFO] res: \r\n%GPS: $GPGGA,104335.000,0000.0000,N,00000.0000,E,1,09,1.0,0.00,M,,,,0000*37\r\n$GPRMC,104335.000,A,0000.0000,N,00000.0000,E,0.00,000.00,161014,,,A*6D\r\n\r\nOK\r\n
[ 10:43:36.230 ] [27:INFO] cmd: ATS89?*47C6
[ 10:43:36.232 ] [27:INFO] res: \r\n001\r\n\r\nOK\r\n
[ 10:43:36.233 ] [27:INFO] cmd: AT%GPS=30,2,"RMC","GGA"*D90A
[ 10:43:36.236 ] [27:INFO] res: \r\n%GPS: $GPGGA,104336.000,0000.0000,N,00000.0000,E,1,09,1.0,0.00,M,,,,0000*34\r\n$GPRMC,104336.000,A,0000.0000,N,00000.0000,E,0.00,000.00,161014,,,A*6E\r\n\r\nOK\r\n
[ 10:43:37.232 ] [27:INFO] cmd: ATS89?*47C6
[ 10:43:37.235 ] [27:INFO] res: \r\n001\r\n\r\nOK\r\n
[ 10:43:37.235 ] [27:INFO] cmd: AT%GPS=30,2,"RMC","GGA"*D90A
[ 10:43:37.239 ] [27:INFO] res: \r\n%GPS: $GPGGA,104337.000,0000.0000,N,00000.0000,E,1,09,1.0,0.00,M,,,,0000*35\r\n$GPRMC,104337.000,A,0000.0000,N,00000.0000,E,0.00,000.00,161014,,,A*6F\r\n\r\nOK\r\n
[ 10:43:38.247 ] [27:INFO] cmd: ATS89?*47C6
[ 10:43:38.249 ] [27:INFO] res: \r\n001\r\n\r\nOK\r\n
[ 10:43:38.249 ] [27:INFO] cmd: AT%GPS=30,2,"RMC","GGA"*D90A
[ 10:43:38.253 ] [27:INFO] res: \r\n%GPS: $GPGGA,104338.000,0000.0000,N,00000.0000,E,1,09,1.0,0.00,M,,,,0000*3A\r\n$GPRMC,104338.000,A,0000.0000,N,00000.0000,E,0.00,000.00,161014,,,A*60\r\n\r\nOK\r\n
[ 10:43:39.267 ] [27:INFO] cmd: ATS89?*47C6
[ 10:43:39.274 ] [27:INFO] res: \r\n001\r\n\r\nOK\r\n
[ 10:43:39.274 ] [27:INFO] cmd: AT%GPS=30,2,"RMC","GGA"*D90A
[ 10:43:39.278 ] [27:INFO] res: \r\n%GPS: $GPGGA,104339.000,0000.0000,N,00000.0000,E,1,09,1.0,0.00,M,,,,0000*3B\r\n$GPRMC,104339.000,A,0000.0000,N,00000.0000,E,0.00,000.00,161014,,,A*61\r\n\r\nOK\r\n
[ 10:43:40.274 ] [27:INFO] cmd: ATS89?*47C6
[ 10:43:40.277 ] [27:INFO] res: \r\n001\r\n\r\nOK\r\n
[ 10:43:40.277 ] [27:INFO] cmd: AT%GPS=30,2,"RMC","GGA"*D90A
[ 10:43:40.280 ] [27:INFO] res: \r\n%GPS: $GPGGA,104340.000,0000.0000,N,00000.0000,E,1,09,1.0,0.00,M,,,,0000*35\r\n$GPRMC,104340.000,A,0000.0000,N,00000.0000,E,0.00,000.00,161014,,,A*6F\r\n\r\nOK\r\n
[ 10:43:41.288 ] [27:INFO] cmd: ATS89?*47C6
[ 10:43:41.299 ] [27:INFO] res: \r\n001\r\n\r\nOK\r\n
[ 10:43:41.300 ] [27:INFO] cmd: AT%GPS=30,2,"RMC","GGA"*D90A
[ 10:43:41.303 ] [27:INFO] res: \r\n%GPS: $GPGGA,104341.000,0000.0000,N,00000.0000,E,1,09,1.0,0.00,M,,,,0000*34\r\n$GPRMC,104341.000,A,0000.0000,N,00000.0000,E,0.00,000.00,161014,,,A*6E\r\n\r\nOK\r\n
[ 10:43:42.303 ] [27:INFO] cmd: ATS89?*47C6
[ 10:43:42.309 ] [27:INFO] res: \r\n001\r\n\r\nOK\r\n
[ 10:43:42.312 ] [27:INFO] cmd: AT%GPS=30,2,"RMC","GGA"*D90A
[ 10:43:42.316 ] [27:INFO] res: \r\n%GPS: $GPGGA,104342.000,0000.0000,N,00000.0000,E,1,09,1.0,0.00,M,,,,0000*37\r\n$GPRMC,104342.000,A,0000.0000,N,00000.0000,E,0.00,000.00,161014,,,A*6D\r\n\r\nOK\r\n
[ 10:43:43.315 ] [27:INFO] cmd: ATS89?*47C6
[ 10:43:43.317 ] [27:INFO] res: \r\n001\r\n\r\nOK\r\n
[ 10:43:43.317 ] [27:INFO] cmd: AT%GPS=30,2,"RMC","GGA"*D90A
[ 10:43:43.320 ] [27:INFO] res: \r\n%GPS: $GPGGA,104343.000,0000.0000,N,00000.0000,E,1,09,1.0,0.00,M,,,,0000*36\r\n$GPRMC,104343.000,A,0000.0000,N,00000.0000,E,0.00,000.00,161014,,,A*6C\r\n\r\nOK\r\n
[ 10:43:44.330 ] [27:INFO] cmd: ATS89?*47C6
[ 10:43:44.331 ] [27:INFO] res: \r\n001\r\n\r\nOK\r\n
[ 10:43:44.332 ] [27:INFO] cmd: AT%GPS=30,2,"RMC","GGA"*D90A
[ 10:43:44.334 ] [27:INFO] res: \r\n%GPS: $GPGGA,104344.000,0000.0000,N,00000.0000,E,1,09,1.0,0.00,M,,,,0000*31\r\n$GPRMC,104344.000,A,0000.0000,N,00000.0000,E,0.00,000.00,161014,,,A*6B\r\n\r\nOK\r\n
[ 10:43:44.535 ] [21:INFO] fix req
[ 10:43:44.535 ] [21:INFO] next run in 25
[ 10:43:44.535 ] [21:INFO] check start
[ 10:43:44.544 ] [21:INFO] check done in 0 seconds
[ 10:43:45.343 ] [27:INFO] cmd: ATS89?*47C6
[ 10:43:45.345 ] [27:INFO] res: \r\n001\r\n\r\nOK\r\n
[ 10:43:45.346 ] [27:INFO] cmd: AT%GPS=30,2,"RMC","GGA"*D90A
[ 10:43:45.348 ] [27:INFO] res: \r\n%GPS: $GPGGA,104345.000,0000.0000,N,00000.0000,E,1,09,1.0,0.00,M,,,,0000*30\r\n$GPRMC,104345.000,A,0000.0000,N,00000.0000,E,0.00,000.00,161014,,,A*6A\r\n\r\nOK\r\n
[ 10:43:46.358 ] [27:INFO] cmd: ATS89?*47C6
[ 10:43:46.359 ] [27:INFO] res: \r\n001\r\n\r\nOK\r\n
[ 10:43:46.360 ] [27:INFO] cmd: AT%GPS=30,2,"RMC","GGA"*D90A
[ 10:43:46.363 ] [27:INFO] res: \r\n%GPS: $GPGGA,104346.000,0000.0000,N,00000.0000,E,1,09,1.0,0.00,M,,,,0000*33\r\n$GPRMC,104346.000,A,0000.0000,N,00000.0000,E,0.00,000.00,161014,,,A*69\r\n\r\nOK\r\n
[ 10:43:47.371 ] [27:INFO] cmd: ATS89?*47C6
[ 10:43:47.373 ] [27:INFO] res: \r\n001\r\n\r\nOK\r\n
[ 10:43:47.373 ] [27:INFO] cmd: AT%GPS=30,2,"RMC","GGA"*D90A
[ 10:43:47.377 ] [27:INFO] res: \r\n%GPS: $GPGGA,104347.000,0000.0000,N,00000.0000,E,1,09,1.0,0.00,M,,,,0000*32\r\n$GPRMC,104347.000,A,0000.0000,N,00000.0000,E,0.00,000.00,161014,,,A*68\r\n\r\nOK\r\n
[ 10:43:48.386 ] [27:INFO] cmd: ATS89?*47C6
[ 10:43:48.387 ] [27:INFO] res: \r\n001\r\n\r\nOK\r\n
[ 10:43:48.388 ] [27:INFO] cmd: AT%GPS=30,2,"RMC","GGA"*D90A
[ 10:43:48.391 ] [27:INFO] res: \r\n%GPS: $GPGGA,104348.000,0000.0000,N,00000.0000,E,1,09,1.0,0.00,M,,,,0000*3D\r\n$GPRMC,104348.000,A,0000.0000,N,00000.0000,E,0.00,000.00,161014,,,A*67\r\n\r\nOK\r\n
[ 10:43:49.399 ] [27:INFO] cmd: ATS89?*47C6
[ 10:43:49.401 ] [27:INFO] res: \r\n001\r\n\r\nOK\r\n
[ 10:43:49.401 ] [27:INFO] cmd: AT%GPS=30,2,"RMC","GGA"*D90A
[ 10:43:49.404 ] [27:INFO] res: \r\n%GPS: $GPGGA,104349.000,0000.0000,N,00000.0000,E,1,09,1.0,0.00,M,,,,0000*3C\r\n$GPRMC,104349.000,A,0000.0000,N,00000.0000,E,0.00,000.00,161014,,,A*66\r\n\r\nOK\r\n
[ 10:43:50.414 ] [27:INFO] cmd: ATS89?*47C6
[ 10:43:50.416 ] [27:INFO] res: \r\n001\r\n\r\nOK\r\n
[ 10:43:50.417 ] [27:INFO] cmd: AT%GPS=30,2,"RMC","GGA"*D90A
[ 10:43:50.420 ] [27:INFO] res: \r\n%GPS: $GPGGA,104350.000,0000.0000,N,00000.0000,E,1,09,1.0,0.00,M,,,,0000*34\r\n$GPRMC,104350.000,A,0000.0000,N,00000.0000,E,0.00,000.00,161014,,,A*6E\r\n\r\nOK\r\n
[ 10:43:51.428 ] [27:INFO] cmd: ATS89?*47C6
[ 10:43:51.437 ] [27:INFO] res: \r\n001\r\n\r\nOK\r\n
[ 10:43:51.437 ] [27:INFO] cmd: AT%GPS=30,2,"RMC","GGA"*D90A
[ 10:43:51.442 ] [27:INFO] res: \r\n%GPS: $GPGGA,104351.000,0000.0000,N,00000.0000,E,1,09,1.0,0.00,M,,,,0000*35\r\n$GPRMC,104351.000,A,0000.0000,N,00000.0000,E,0.00,000.00,161014,,,A*6F\r\n\r\nOK\r\n
[ 10:43:52.442 ] [27:INFO] cmd: ATS89?*47C6
[ 10:43:52.444 ] [27:INFO] res: \r\n001\r\n\r\nOK\r\n
[ 10:43:52.445 ] [27:INFO] cmd: AT%GPS=30,2,"RMC","GGA"*D90A
[ 10:43:52.448 ] [27:INFO] res: \r\n%GPS: $GPGGA,104352.000,0000.0000,N,00000.0000,E,1,09,1.0,0.00,M,,,,0000*36\r\n$GPRMC,104352.000,A,0000.0000,N,00000.0000,E,0.00,000.00,161014,,,A*6C\r\n\r\nOK\r\n
[ 10:43:53.455 ] [27:INFO] cmd: ATS89?*47C6
[ 10:43:53.457 ] [27:INFO] res: \r\n001\r\n\r\nOK\r\n
[ 10:43:53.458 ] [27:INFO] cmd: AT%GPS=30,2,"RMC","GGA"*D90A
[ 10:43:53.461 ] [27:INFO] res: \r\n%GPS: $GPGGA,104353.000,0000.0000,N,00000.0000,E,1,09,1.0,0.00,M,,,,0000*37\r\n$GPRMC,104353.000,A,0000.0000,N,00000.0000,E,0.00,000.00,161014,,,A*6D\r\n\r\nOK\r\n
[ 10:43:54.470 ] [27:INFO] cmd: ATS89?*47C6
[ 10:43:54.472 ] [27:INFO] res: \r\n001\r\n\r\nOK\r\n
[ 10:43:54.473 ] [27:INFO] cmd: AT%GPS=30,2,"RMC","GGA"*D90A
[ 10:43:54.476 ] [27:INFO] res: \r\n%GPS: $GPGGA,104354.000,0000.0000,N,00000.0000,E,1,09,1.0,0.00,M,,,,0000*30\r\n$GPRMC,104354.000,A,0000.0000,N,00000.0000,E,0.00,000.00,161014,,,A*6A\r\n\r\nOK\r\n
[ 10:43:55.484 ] [27:INFO] cmd: ATS89?*47C6
[ 10:43:55.486 ] [27:INFO] res: \r\n001\r\n\r\nOK\r\n
[ 10:43:55.487 ] [27:INFO] cmd: AT%GPS=30,2,"RMC","GGA"*D90A
[ 10:43:55.490 ] [27:INFO] res: \r\n%GPS: $GPGGA,104355.000,0000.0000,N,00000.0000,E,1,09,1.0,0.00,M,,,,0000*31\r\n$GPRMC,104355.000,A,0000.0000,N,00000.0000,E,0.00,000.00,161014,,,A*6B\r\n\r\nOK\r\n
[ 10:43:56.499 ] [27:INFO] cmd: ATS89?*47C6
[ 10:43:56.501 ] [27:INFO] res: \r\n001\r\n\r\nOK\r\n
[ 10:43:56.501 ] [27:INFO] cmd: AT%GPS=30,2,"RMC","GGA"*D90A
[ 10:43:56.504 ] [27:INFO] res: \r\n%GPS: $GPGGA,104356.000,0000.0000,N,00000.0000,E,1,09,1.0,0.00,M,,,,0000*32\r\n$GPRMC,104356.000,A,0000.0000,N,00000.0000,E,0.00,000.00,161014,,,A*68\r\n\r\nOK\r\n
[ 10:43:57.512 ] [27:INFO] cmd: ATS89?*47C6
[ 10:43:57.514 ] [27:INFO] res: \r\n001\r\n\r\nOK\r\n
[ 10:43:57.515 ] [27:INFO] cmd: AT%GPS=30,2,"RMC","GGA"*D90A
[ 10:43:57.521 ] [27:INFO] res: \r\n%GPS: $GPGGA,104357.000,0000.0000,N,00000.0000,E,1,09,1.0,0.00,M,,,,0000*33\r\n$GPRMC,104357.000,A,0000.0000,N,00000.0000,E,0.00,000.00,161014,,,A*69\r\n\r\nOK\r\n
[ 10:43:58.527 ] [27:INFO] cmd: ATS89?*47C6
[ 10:43:58.529 ] [27:INFO] res: \r\n001\r\n\r\nOK\r\n
[ 10:43:58.529 ] [27:INFO] cmd: AT%GPS=30,2,"RMC","GGA"*D90A
[ 10:43:58.532 ] [27:INFO] res: \r\n%GPS: $GPGGA,104358.000,0000.0000,N,00000.0000,E,1,09,1.0,0.00,M,,,,0000*3C\r\n$GPRMC,104358.000,A,0000.0000,N,00000.0000,E,0.00,000.00,161014,,,A*66\r\n\r\nOK\r\n
[ 10:43:59.555 ] [27:INFO] cmd: ATS89?*47C6
[ 10:43:59.557 ] [27:INFO] res: \r\n001\r\n\r\nOK\r\n
[ 10:43:59.558 ] [27:INFO] cmd: AT%GPS=30,2,"RMC","GGA"*D90A
[ 10:43:59.561 ] [27:INFO] res: \r\n%GPS: $GPGGA,104359.000,0000.0000,N,00000.0000,E,1,09,1.0,0.00,M,,,,0000*3D\r\n$GPRMC,104359.000,A,0000.0000,N,00000.0000,E,0.00,000.00,161014,,,A*67\r\n\r\nOK\r\n
[ 10:44:00.570 ] [27:INFO] cmd: ATS89?*47C6
[ 10:44:00.571 ] [27:INFO] res: \r\n001\r\n\r\nOK\r\n
[ 10:44:00.572 ] [27:INFO] cmd: AT%GPS=30,2,"RMC","GGA"*D90A
[ 10:44:00.575 ] [27:INFO] res: \r\n%GPS: $GPGGA,104400.000,0000.0000,N,00000.0000,E,1,09,1.0,0.00,M,,,,0000*36\r\n$GPRMC,104400.000,A,0000.0000,N,00000.0000,E,0.00,000.00,161014,,,A*6C\r\n\r\nOK\r\n
[ 10:44:01.583 ] [27:INFO] cmd: ATS89?*47C6
[ 10:44:01.585 ] [27:INFO] res: \r\n001\r\n\r\nOK\r\n
[ 10:44:01.586 ] [27:INFO] cmd: AT%GPS=30,2,"RMC","GGA"*D90A
[ 10:44:01.589 ] [27:INFO] res: \r\n%GPS: $GPGGA,104401.000,0000.0000,N,00000.0000,E,1,09,1.0,0.00,M,,,,0000*37\r\n$GPRMC,104401.000,A,0000.0000,N,00000.0000,E,0.00,000.00,161014,,,A*6D\r\n\r\nOK\r\n
[ 10:44:02.598 ] [27:INFO] cmd: ATS89?*47C6
[ 10:44:02.599 ] [27:INFO] res: \r\n001\r\n\r\nOK\r\n
[ 10:44:02.600 ] [27:INFO] cmd: AT%GPS=30,2,"RMC","GGA"*D90A
[ 10:44:02.603 ] [27:INFO] res: \r\n%GPS: $GPGGA,104402.000,0000.0000,N,00000.0000,E,1,09,1.0,0.00,M,,,,0000*34\r\n$GPRMC,104402.000,A,0000.0000,N,00000.0000,E,0.00,000.00,161014,,,A*6E\r\n\r\nOK\r\n
[ 10:44:03.611 ] [27:INFO] cmd: ATS89?*47C6
[ 10:44:03.614 ] [27:INFO] res: \r\n001\r\n\r\nOK\r\n
[ 10:44:03.614 ] [27:INFO] cmd: AT%GPS=30,2,"RMC","GGA"*D90A
[ 10:44:03.617 ] [27:INFO] res: \r\n%GPS: $GPGGA,104403.000,0000.0000,N,00000.0000,E,1,09,1.0,0.00,M,,,,0000*35\r\n$GPRMC,104403.000,A,0000.0000,N,00000.0000,E,0.00,000.00,161014,,,A*6F\r\n\r\nOK\r\n
[ 10:44:04.626 ] [27:INFO] cmd: ATS89?*47C6
[ 10:44:04.632 ] [27:INFO] res: \r\n001\r\n\r\nOK\r\n
[ 10:44:04.632 ] [27:INFO] cmd: AT%GPS=30,2,"RMC","GGA"*D90A
[ 10:44:04.636 ] [27:INFO] res: \r\n%GPS: $GPGGA,104404.000,0000.0000,N,00000.0000,E,1,09,1.0,0.00,M,,,,0000*32\r\n$GPRMC,104404.000,A,0000.0000,N,00000.0000,E,0.00,000.00,161014,,,A*68\r\n\r\nOK\r\n
[ 10:44:05.639 ] [27:INFO] cmd: ATS89?*47C6
[ 10:44:05.641 ] [27:INFO] res: \r\n001\r\n\r\nOK\r\n
[ 10:44:05.642 ] [27:INFO] cmd: AT%GPS=30,2,"RMC","GGA"*D90A
[ 10:44:05.645 ] [27:INFO] res: \r\n%GPS: $GPGGA,104405.000,0000.0000,N,00000.0000,E,1,09,1.0,0.00,M,,,,0000*33\r\n$GPRMC,104405.000,A,0000.0000,N,00000.0000,E,0.00,000.00,161014,,,A*69\r\n\r\nOK\r\n
[ 10:44:06.654 ] [27:INFO] cmd: ATS89?*47C6
[ 10:44:06.666 ] [27:INFO] res: \r\n001\r\n\r\nOK\r\n
[ 10:44:06.666 ] [27:INFO] cmd: AT%GPS=30,2,"RMC","GGA"*D90A
[ 10:44:06.669 ] [27:INFO] res: \r\n%GPS: $GPGGA,104406.000,0000.0000,N,00000.0000,E,1,09,1.0,0.00,M,,,,0000*30\r\n$GPRMC,104406.000,A,0000.0000,N,00000.0000,E,0.00,000.00,161014,,,A*6A\r\n\r\nOK\r\n
[ 10:44:07.667 ] [27:INFO] cmd: ATS89?*47C6
[ 10:44:07.669 ] [27:INFO] res: \r\n001\r\n\r\nOK\r\n
[ 10:44:07.670 ] [27:INFO] cmd: AT%GPS=30,2,"RMC","GGA"*D90A
[ 10:44:07.673 ] [27:INFO] res: \r\n%GPS: $GPGGA,104407.000,0000.0000,N,00000.0000,E,1,09,1.0,0.00,M,,,,0000*31\r\n$GPRMC,104407.000,A,0000.0000,N,00000.0000,E,0.00,000.00,161014,,,A*6B\r\n\r\nOK\r\n
[ 10:44:08.682 ] [27:INFO] cmd: ATS89?*47C6
[ 10:44:08.684 ] [27:INFO] res: \r\n001\r\n\r\nOK\r\n
[ 10:44:08.684 ] [27:INFO] cmd: AT%GPS=30,2,"RMC","GGA"*D90A
[ 10:44:08.687 ] [27:INFO] res: \r\n%GPS: $GPGGA,104408.000,0000.0000,N,00000.0000,E,1,09,1.0,0.00,M,,,,0000*3E\r\n$GPRMC,104408.000,A,0000.0000,N,00000.0000,E,0.00,000.00,161014,,,A*64\r\n\r\nOK\r\n
[ 10:44:09.490 ] [21:INFO] fix req
[ 10:44:09.490 ] [21:INFO] next run in 25
[ 10:44:09.491 ] [21:INFO] check start
[ 10:44:09.497 ] [21:INFO] check done in 0 seconds
[ 10:44:09.695 ] [27:INFO] cmd: ATS89?*47C6
[ 10:44:09.698 ] [27:INFO] res: \r\n001\r\n\r\nOK\r\n
[ 10:44:09.698 ] [27:INFO] cmd: AT%GPS=30,2,"RMC","GGA"*D90A
[ 10:44:09.701 ] [27:INFO] res: \r\n%GPS: $GPGGA,104409.000,0000.0000,N,00000.0000,E,1,09,1.0,0.00,M,,,,0000*3F\r\n$GPRMC,104409.000,A,0000.0000,N,00000.0000,E,0.00,000.00,161014,,,A*65\r\n\r\nOK\r\n
[ 10:44:10.710 ] [27:INFO] cmd: ATS89?*47C6
[ 10:44:10.711 ] [27:INFO] res: \r\n001\r\n\r\nOK\r\n
[ 10:44:10.712 ] [27:INFO] cmd: AT%GPS=30,2,"RMC","GGA"*D90A
[ 10:44:10.715 ] [27:INFO] res: \r\n%GPS: $GPGGA,104410.000,0000.0000,N,00000.0000,E,1,09,1.0,0.00,M,,,,0000*37\r\n$GPRMC,104410.000,A,0000.0000,N,00000.0000,E,0.00,000.00,161014,,,A*6D\r\n\r\nOK\r\n
[ 10:44:11.723 ] [27:INFO] cmd: ATS89?*47C6
[ 10:44:11.725 ] [27:INFO] res: \r\n001\r\n\r\nOK\r\n
[ 10:44:11.725 ] [27:INFO] cmd: AT%GPS=30,2,"RMC","GGA"*D90A
[ 10:44:11.729 ] [27:INFO] res: \r\n%GPS: $GPGGA,104411.000,0000.0000,N,00000.0000,E,1,09,1.0,0.00,M,,,,0000*36\r\n$GPRMC,104411.000,A,0000.0000,N,00000.0000,E,0.00,000.00,161014,,,A*6C\r\n\r\nOK\r\n
[ 10:44:12.739 ] [27:INFO] cmd: ATS89?*47C6
[ 10:44:12.740 ] [27:INFO] res: \r\n001\r\n\r\nOK\r\n
[ 10:44:12.741 ] [27:INFO] cmd: AT%GPS=30,2,"RMC","GGA"*D90A
[ 10:44:12.743 ] [27:INFO] res: \r\n%GPS: $GPGGA,104412.000,0000.0000,N,00000.0000,E,1,09,1.0,0.00,M,,,,0000*35\r\n$GPRMC,104412.000,A,0000.0000,N,00000.0000,E,0.00,000.00,161014,,,A*6F\r\n\r\nOK\r\n
[ 10:44:13.752 ] [27:INFO] cmd: ATS89?*47C6
[ 10:44:13.754 ] [27:INFO] res: \r\n001\r\n\r\nOK\r\n
[ 10:44:13.754 ] [27:INFO] cmd: AT%GPS=30,2,"RMC","GGA"*D90A
[ 10:44:13.757 ] [27:INFO] res: \r\n%GPS: $GPGGA,104413.000,0000.0000,N,00000.0000,E,1,09,1.0,0.00,M,,,,0000*34\r\n$GPRMC,104413.000,A,0000.0000,N,00000.0000,E,0.00,000.00,161014,,,A*6E\r\n\r\nOK\r\n
[ 10:44:14.767 ] [27:INFO] cmd: ATS89?*47C6
[ 10:44:14.769 ] [27:INFO] res: \r\n001\r\n\r\nOK\r\n
[ 10:44:14.769 ] [27:INFO] cmd: AT%GPS=30,2,"RMC","GGA"*D90A
[ 10:44:14.772 ] [27:INFO] res: \r\n%GPS: $GPGGA,104414.000,0000.0000,N,00000.0000,E,1,09,1.0,0.00,M,,,,0000*33\r\n$GPRMC,104414.000,A,0000.0000,N,00000.0000,E,0.00,000.00,161014,,,A*69\r\n\r\nOK\r\n
[ 10:44:15.780 ] [27:INFO] cmd: ATS89?*47C6
[ 10:44:15.782 ] [27:INFO] res: \r\n001\r\n\r\nOK\r\n
[ 10:44:15.782 ] [27:INFO] cmd: AT%GPS=30,2,"RMC","GGA"*D90A
[ 10:44:15.786 ] [27:INFO] res: \r\n%GPS: $GPGGA,104415.000,0000.0000,N,00000.0000,E,1,09,1.0,0.00,M,,,,0000*32\r\n$GPRMC,104415.000,A,0000.0000,N,00000.0000,E,0.00,000.00,161014,,,A*68\r\n\r\nOK\r\n
[ 10:44:16.795 ] [27:INFO] cmd: ATS89?*47C6
[ 10:44:16.796 ] [27:INFO] res: \r\n001\r\n\r\nOK\r\n
[ 10:44:16.797 ] [27:INFO] cmd: AT%GPS=30,2,"RMC","GGA"*D90A
[ 10:44:16.805 ] [27:INFO] res: \r\n%GPS: $GPGGA,104416.000,0000.0000,N,00000.0000,E,1,09,1.0,0.00,M,,,,0000*31\r\n$GPRMC,104416.000,A,0000.0000,N,00000.0000,E,0.00,000.00,161014,,,A*6B\r\n\r\nOK\r\n
[ 10:44:17.809 ] [27:INFO] cmd: ATS89?*47C6
[ 10:44:17.814 ] [27:INFO] res: \r\n001\r\n\r\nOK\r\n
[ 10:44:17.814 ] [27:INFO] cmd: AT%GPS=30,2,"RMC","GGA"*D90A
[ 10:44:17.818 ] [27:INFO] res: \r\n%GPS: $GPGGA,104417.000,0000.0000,N,00000.0000,E,1,09,1.0,0.00,M,,,,0000*30\r\n$GPRMC,104417.000,A,0000.0000,N,00000.0000,E,0.00,000.00,161014,,,A*6A\r\n\r\nOK\r\n
[ 10:44:18.823 ] [27:INFO] cmd: ATS89?*47C6
[ 10:44:18.825 ] [27:INFO] res: \r\n001\r\n\r\nOK\r\n
[ 10:44:18.825 ] [27:INFO] cmd: AT%GPS=30,2,"RMC","GGA"*D90A
[ 10:44:18.829 ] [27:INFO] res: \r\n%GPS: $GPGGA,104418.000,0000.0000,N,00000.0000,E,1,09,1.0,0.00,M,,,,0000*3F\r\n$GPRMC,104418.000,A,0000.0000,N,00000.0000,E,0.00,000.00,161014,,,A*65\r\n\r\nOK\r\n
[ 10:44:19.836 ] [27:INFO] cmd: ATS89?*47C6
[ 10:44:19.838 ] [27:INFO] res: \r\n001\r\n\r\nOK\r\n
[ 10:44:19.839 ] [27:INFO] cmd: AT%GPS=30,2,"RMC","GGA"*D90A
[ 10:44:19.841 ] [27:INFO] res: \r\n%GPS: $GPGGA,104419.000,0000.0000,N,00000.0000,E,1,09,1.0,0.00,M,,,,0000*3E\r\n$GPRMC,104419.000,A,0000.0000,N,00000.0000,E,0.00,000.00,161014,,,A*64\r\n\r\nOK\r\n
[ 10:44:20.850 ] [27:INFO] cmd: ATS89?*47C6
[ 10:44:20.853 ] [27:INFO] res: \r\n001\r\n\r\nOK\r\n
[ 10:44:20.854 ] [27:INFO] cmd: AT%GPS=30,2,"RMC","GGA"*D90A
[ 10:44:20.858 ] [27:INFO] res: \r\n%GPS: $GPGGA,104420.000,0000.0000,N,00000.0000,E,1,09,1.0,0.00,M,,,,0000*34\r\n$GPRMC,104420.000,A,0000.0000,N,00000.0000,E,0.00,000.00,161014,,,A*6E\r\n\r\nOK\r\n
[ 10:44:21.867 ] [27:INFO] cmd: ATS89?*47C6
[ 10:44:21.868 ] [27:INFO] res: \r\n001\r\n\r\nOK\r\n
[ 10:44:21.869 ] [27:INFO] cmd: AT%GPS=30,2,"RMC","GGA"*D90A
[ 10:44:21.871 ] [27:INFO] res: \r\n%GPS: $GPGGA,104421.000,0000.0000,N,00000.0000,E,1,09,1.0,0.00,M,,,,0000*35\r\n$GPRMC,104421.000,A,0000.0000,N,00000.0000,E,0.00,000.00,161014,,,A*6F\r\n\r\nOK\r\n
[ 10:44:22.879 ] [27:INFO] cmd: ATS89?*47C6
[ 10:44:22.880 ] [27:INFO] res: \r\n001\r\n\r\nOK\r\n
[ 10:44:22.881 ] [27:INFO] cmd: AT%GPS=30,2,"RMC","GGA"*D90A
[ 10:44:22.884 ] [27:INFO] res: \r\n%GPS: $GPGGA,104422.000,0000.0000,N,00000.0000,E,1,09,1.0,0.00,M,,,,0000*36\r\n$GPRMC,104422.000,A,0000.0000,N,00000.0000,E,0.00,000.00,161014,,,A*6C\r\n\r\nOK\r\n
[ 10:44:23.892 ] [27:INFO] cmd: ATS89?*47C6
[ 10:44:23.896 ] [27:INFO] res: \r\n001\r\n\r\nOK\r\n
[ 10:44:23.897 ] [27:INFO] cmd: AT%GPS=30,2,"RMC","GGA"*D90A
[ 10:44:23.900 ] [27:INFO] res: \r\n%GPS: $GPGGA,104423.000,0000.0000,N,00000.0000,E,1,09,1.0,0.00,M,,,,0000*37\r\n$GPRMC,104423.000,A,0000.0000,N,00000.0000,E,0.00,000.00,161014,,,A*6D\r\n\r\nOK\r\n
[ 10:44:24.906 ] [27:INFO] cmd: ATS89?*47C6
[ 10:44:24.908 ] [27:INFO] res: \r\n001\r\n\r\nOK\r\n
[ 10:44:24.908 ] [27:INFO] cmd: AT%GPS=30,2,"RMC","GGA"*D90A
[ 10:44:24.912 ] [27:INFO] res: \r\n%GPS: $GPGGA,104424.000,0000.0000,N,00000.0000,E,1,09,1.0,0.00,M,,,,0000*30\r\n$GPRMC,104424.000,A,0000.0000,N,00000.0000,E,0.00,000.00,161014,,,A*6A\r\n\r\nOK\r\n
[ 10:44:25.920 ] [27:INFO] cmd: ATS89?*47C6
[ 10:44:25.923 ] [27:INFO] res: \r\n001\r\n\r\nOK\r\n
[ 10:44:25.923 ] [27:INFO] cmd: AT%GPS=30,2,"RMC","GGA"*D90A
[ 10:44:25.928 ] [27:INFO] res: \r\n%GPS: $GPGGA,104425.000,0000.0000,N,00000.0000,E,1,09,1.0,0.00,M,,,,0000*31\r\n$GPRMC,104425.000,A,0000.0000,N,00000.0000,E,0.00,000.00,161014,,,A*6B\r\n\r\nOK\r\n
[ 10:44:26.935 ] [27:INFO] cmd: ATS89?*47C6
[ 10:44:26.937 ] [27:INFO] res: \r\n001\r\n\r\nOK\r\n
[ 10:44:26.937 ] [27:INFO] cmd: AT%GPS=30,2,"RMC","GGA"*D90A
[ 10:44:26.941 ] [27:INFO] res: \r\n%GPS: $GPGGA,104426.000,0000.0000,N,00000.0000,E,1,09,1.0,0.00,M,,,,0000*32\r\n$GPRMC,104426.000,A,0000.0000,N,00000.0000,E,0.00,000.00,161014,,,A*68\r\n\r\nOK\r\n
[ 10:44:27.947 ] [27:INFO] cmd: ATS89?*47C6
[ 10:44:27.950 ] [27:INFO] res: \r\n001\r\n\r\nOK\r\n
[ 10:44:27.951 ] [27:INFO] cmd: AT%GPS=30,2,"RMC","GGA"*D90A
[ 10:44:27.954 ] [27:INFO] res: \r\n%GPS: $GPGGA,104427.000,0000.0000,N,00000.0000,E,1,09,1.0,0.00,M,,,,0000*33\r\n$GPRMC,104427.000,A,0000.0000,N,00000.0000,E,0.00,000.00,161014,,,A*69\r\n\r\nOK\r\n
[ 10:44:28.962 ] [27:INFO] cmd: ATS89?*47C6
[ 10:44:28.963 ] [27:INFO] res: \r\n001\r\n\r\nOK\r\n
[ 10:44:28.964 ] [27:INFO] cmd: AT%GPS=30,2,"RMC","GGA"*D90A
[ 10:44:28.969 ] [27:INFO] res: \r\n%GPS: $GPGGA,104428.000,0000.0000,N,00000.0000,E,1,09,1.0,0.00,M,,,,0000*3C\r\n$GPRMC,104428.000,A,0000.0000,N,00000.0000,E,0.00,000.00,161014,,,A*66\r\n\r\nOK\r\n
[ 10:44:29.976 ] [27:INFO] cmd: ATS89?*47C6
[ 10:44:29.980 ] [27:INFO] res: \r\n001\r\n\r\nOK\r\n
[ 10:44:29.980 ] [27:INFO] cmd: AT%GPS=30,2,"RMC","GGA"*D90A
