\r\n$GPRMC,111801.000,A,0300.0000,N,00300.0000,E,0.00,000.00,301214,,,A*63\r\n\r\nOK\r\n
[ 11:18:02.840 ] [27:INFO] cmd: ATS89?*47C6
[ 11:18:02.877 ] [27:INFO] res: \r\n00001\r\n\r\nOK\r\n
[ 11:18:02.881 ] [27:INFO] cmd: AT%GPS=30,2,"RMC","GGA"*D90A
[ 11:18:02.884 ] [27:INFO] res: \r\n%GPS: $GPGGA,111802.000,0300.0000,N,00300.0000,E,1,09,1.0,0.00,M,,,,0000*3C\r\n$GPRMC,111802.000,A,0300.0000,N,00300.0000,E,0.00,000.00,301214,,,A*60\r\n\r\nOK\r\n
[ 11:18:03.484 ] [27:INFO] cmd: ATS89?*47C6
[ 11:18:03.484 ] [27:INFO] res: \r\n00001\r\n\r\nOK\r\n
[ 11:18:03.484 ] [27:INFO] cmd: AT%GPS=30,2,"RMC","GGA"*D90A
[ 11:18:03.484 ] [27:INFO] res: \r\n%GPS: $GPGGA,111803.000,0300.0000,N,00300.0000,E,1,09,1.0,0.00,M,,,,0000*3D\r\n$GPRMC,111803.000,A,0300.0000,N,00300.0000,E,0.00,000.00,301214,,,A*61\r\n\r\nOK\r\n
[ 11:18:04.504 ] [27:INFO] cmd: ATS89?*47C6
[ 11:18:04.504 ] [27:INFO] res: \r\n00001\r\n\r\nOK\r\n
[ 11:18:04.504 ] [27:INFO] cmd: AT%GPS=30,2,"RMC","GGA"*D90A
[ 11:18:04.504 ] [27:INFO] res: \r\n%GPS: $GPGGA,111804.000,0300.0000,N,00300.0000,E,1,09,1.0,0.00,M,,,,0000*3A\r\n$GPRMC,111804.000,A,0300.0000,N,00300.0000,E,0.00,000.00,301214,,,A*66\r\n\r\nOK\r\n
[ 11:18:05.514 ] [27:INFO] cmd: ATS89?*47C6
[ 11:18:05.514 ] [27:INFO] res: \r\n00001\r\n\r\nOK\r\n
[ 11:18:05.514 ] [27:INFO] cmd: AT%GPS=30,2,"RMC","GGA"*D90A
[ 11:18:05.514 ] [27:INFO] res: \r\n%GPS: $GPGGA,111805.000,0300.0000,N,00300.0000,E,1,09,1.0,0.00,M,,,,0000*3B\r\n$GPRMC,111805.000,A,0300.0000,N,00300.0000,E,0.00,000.00,301214,,,A*67\r\n\r\nOK\r\n
[ 11:18:06.526 ] [27:INFO] cmd: ATS89?*47C6
[ 11:18:06.526 ] [27:INFO] res: \r\n00001\r\n\r\nOK\r\n
[ 11:18:06.526 ] [27:INFO] cmd: AT%GPS=30,2,"RMC","GGA"*D90A
[ 11:18:06.526 ] [27:INFO] res: \r\n%GPS: $GPGGA,111806.000,0300.0000,N,00300.0000,E,1,09,1.0,0.00,M,,,,0000*38\r\n$GPRMC,111806.000,A,0300.0000,N,00300.0000,E,0.00,000.00,301214,,,A*64\r\n\r\nOK\r\n
[ 11:18:07.544 ] [27:INFO] cmd: ATS89?*47C6
[ 11:18:07.544 ] [27:INFO] res: \r\n00001\r\n\r\nOK\r\n
[ 11:18:07.544 ] [27:INFO] cmd: AT%GPS=30,2,"RMC","GGA"*D90A
[ 11:18:07.544 ] [27:INFO] res: \r\n%GPS: $GPGGA,111807.000,0300.0000,N,00300.0000,E,1,09,1.0,0.00,M,,,,0000*39\r\n$GPRMC,111807.000,A,0300.0000,N,00300.0000,E,0.00,000.00,301214,,,A*65\r\n\r\nOK\r\n
[ 11:18:08.555 ] [27:INFO] cmd: ATS89?*47C6
[ 11:18:08.555 ] [27:INFO] res: \r\n00001\r\n\r\nOK\r\n
[ 11:18:08.555 ] [27:INFO] cmd: AT%GPS=30,2,"RMC","GGA"*D90A
[ 11:18:08.555 ] [27:INFO] res: \r\n%GPS: $GPGGA,111808.000,0300.0000,N,00300.0000,E,1,09,1.0,0.00,M,,,,0000*36\r\n$GPRMC,111808.000,A,0300.0000,N,00300.0000,E,0.00,000.00,301214,,,A*6A\r\n\r\nOK\r\n
[ 11:18:09.565 ] [27:INFO] cmd: ATS89?*47C6
[ 11:18:09.565 ] [27:INFO] res: \r\n00001\r\n\r\nOK\r\n
[ 11:18:09.565 ] [27:INFO] cmd: AT%GPS=30,2,"RMC","GGA"*D90A
[ 11:18:09.575 ] [27:INFO] res: \r\n%GPS: $GPGGA,111809.000,0300.0000,N,00300.0000,E,1,09,1.0,0.00,M,,,,0000*37\r\n$GPRMC,111809.000,A,0300.0000,N,00300.0000,E,0.00,000.00,301214,,,A*6B\r\n\r\nOK\r\n
[ 11:18:10.586 ] [27:INFO] cmd: ATS89?*47C6
[ 11:18:10.586 ] [27:INFO] res: \r\n00001\r\n\r\nOK\r\n
[ 11:18:10.586 ] [27:INFO] cmd: AT%GPS=30,2,"RMC","GGA"*D90A
[ 11:18:10.596 ] [27:INFO] res: \r\n%GPS: $GPGGA,111810.000,0300.0000,N,00300.0000,E,1,09,1.0,0.00,M,,,,0000*3F\r\n$GPRMC,111810.000,A,0300.0000,N,00300.0000,E,0.00,000.00,301214,,,A*63\r\n\r\nOK\r\n
[ 11:18:11.599 ] [27:INFO] cmd: ATS89?*47C6
[ 11:18:11.599 ] [27:INFO] res: \r\n00001\r\n\r\nOK\r\n
[ 11:18:11.599 ] [27:INFO] cmd: AT%GPS=30,2,"RMC","GGA"*D90A
[ 11:18:11.599 ] [27:INFO] res: \r\n%GPS: $GPGGA,111811.000,0300.0000,N,00300.0000,E,1,09,1.0,0.00,M,,,,0000*3E\r\n$GPRMC,111811.000,A,0300.0000,N,00300.0000,E,0.00,000.00,301214,,,A*62\r\n\r\nOK\r\n
[ 11:18:12.611 ] [27:INFO] cmd: ATS89?*47C6
[ 11:18:12.611 ] [27:INFO] res: \r\n00001\r\n\r\nOK\r\n
[ 11:18:12.611 ] [27:INFO] cmd: AT%GPS=30,2,"RMC","GGA"*D90A
[ 11:18:12.611 ] [27:INFO] res: \r\n%GPS: $GPGGA,111812.000,0300.0000,N,00300.0000,E,1,09,1.0,0.00,M,,,,0000*3D\r\n$GPRMC,111812.000,A,0300.0000,N,00300.0000,E,0.00,000.00,301214,,,A*61\r\n\r\nOK\r\n
[ 11:18:13.621 ] [27:INFO] cmd: ATS89?*47C6
[ 11:18:13.621 ] [27:INFO] res: \r\n00001\r\n\r\nOK\r\n
[ 11:18:13.621 ] [27:INFO] cmd: AT%GPS=30,2,"RMC","GGA"*D90A
[ 11:18:13.621 ] [27:INFO] res: \r\n%GPS: $GPGGA,111813.000,0300.0000,N,00300.0000,E,1,09,1.0,0.00,M,,,,0000*3C\r\n$GPRMC,111813.000,A,0300.0000,N,00300.0000,E,0.00,000.00,301214,,,A*60\r\n\r\nOK\r\n
[ 11:18:14.641 ] [27:INFO] cmd: ATS89?*47C6
[ 11:18:14.641 ] [27:INFO] res: \r\n00001\r\n\r\nOK\r\n
[ 11:18:14.641 ] [27:INFO] cmd: AT%GPS=30,2,"RMC","GGA"*D90A
[ 11:18:14.651 ] [27:INFO] res: \r\n%GPS: $GPGGA,111814.000,0300.0000,N,00300.0000,E,1,09,1.0,0.00,M,,,,0000*3B\r\n$GPRMC,111814.000,A,0300.0000,N,00300.0000,E,0.00,000.00,301214,,,A*67\r\n\r\nOK\r\n
[ 11:18:15.653 ] [27:INFO] cmd: ATS89?*47C6
[ 11:18:15.653 ] [27:INFO] res: \r\n00001\r\n\r\nOK\r\n
[ 11:18:15.653 ] [27:INFO] cmd: AT%GPS=30,2,"RMC","GGA"*D90A
[ 11:18:15.653 ] [27:INFO] res: \r\n%GPS: $GPGGA,111815.000,0300.0000,N,00300.0000,E,1,09,1.0,0.00,M,,,,0000*3A\r\n$GPRMC,111815.000,A,0300.0000,N,00300.0000,E,0.00,000.00,301214,,,A*66\r\n\r\nOK\r\n
[ 11:18:16.668 ] [27:INFO] cmd: ATS89?*47C6
[ 11:18:16.668 ] [27:INFO] res: \r\n00001\r\n\r\nOK\r\n
[ 11:18:16.668 ] [27:INFO] cmd: AT%GPS=30,2,"RMC","GGA"*D90A
[ 11:18:16.668 ] [27:INFO] res: \r\n%GPS: $GPGGA,111816.000,0300.0000,N,00300.0000,E,1,09,1.0,0.00,M,,,,0000*39\r\n$GPRMC,111816.000,A,0300.0000,N,00300.0000,E,0.00,000.00,301214,,,A*65\r\n\r\nOK\r\n
[ 11:18:17.678 ] [27:INFO] cmd: ATS89?*47C6
[ 11:18:17.678 ] [27:INFO] res: \r\n00001\r\n\r\nOK\r\n
[ 11:18:17.678 ] [27:INFO] cmd: AT%GPS=30,2,"RMC","GGA"*D90A
[ 11:18:17.678 ] [27:INFO] res: \r\n%GPS: $GPGGA,111817.000,0300.0000,N,00300.0000,E,1,09,1.0,0.00,M,,,,0000*38\r\n$GPRMC,111817.000,A,0300.0000,N,00300.0000,E,0.00,000.00,301214,,,A*64\r\n\r\nOK\r\n
[ 11:18:18.692 ] [27:INFO] cmd: ATS89?*47C6
[ 11:18:18.693 ] [27:INFO] res: \r\n00001\r\n\r\nOK\r\n
[ 11:18:18.693 ] [27:INFO] cmd: AT%GPS=30,2,"RMC","GGA"*D90A
[ 11:18:18.695 ] [27:INFO] res: \r\n%GPS: $GPGGA,111818.000,0300.0000,N,00300.0000,E,1,09,1.0,0.00,M,,,,0000*37\r\n$GPRMC,111818.000,A,0300.0000,N,00300.0000,E,0.00,000.00,301214,,,A*6B\r\n\r\nOK\r\n
[ 11:18:19.710 ] [27:INFO] cmd: ATS89?*47C6
[ 11:18:19.710 ] [27:INFO] res: \r\n00001\r\n\r\nOK\r\n
[ 11:18:19.710 ] [27:INFO] cmd: AT%GPS=30,2,"RMC","GGA"*D90A
[ 11:18:19.710 ] [27:INFO] res: \r\n%GPS: $GPGGA,111819.000,0300.0000,N,00300.0000,E,1,09,1.0,0.00,M,,,,0000*36\r\n$GPRMC,111819.000,A,0300.0000,N,00300.0000,E,0.00,000.00,301214,,,A*6A\r\n\r\nOK\r\n
[ 11:18:20.724 ] [27:INFO] cmd: ATS89?*47C6
[ 11:18:20.724 ] [27:INFO] res: \r\n00001\r\n\r\nOK\r\n
[ 11:18:20.724 ] [27:INFO] cmd: AT%GPS=30,2,"RMC","GGA"*D90A
[ 11:18:20.724 ] [27:INFO] res: \r\n%GPS: $GPGGA,111820.000,0300.0000,N,00300.0000,E,1,09,1.0,0.00,M,,,,0000*3C\r\n$GPRMC,111820.000,A,0300.0000,N,00300.0000,E,0.00,000.00,301214,,,A*60\r\n\r\nOK\r\n
[ 11:18:21.735 ] [27:INFO] cmd: ATS89?*47C6
[ 11:18:21.735 ] [27:INFO] res: \r\n00001\r\n\r\nOK\r\n
[ 11:18:21.735 ] [27:INFO] cmd: AT%GPS=30,2,"RMC","GGA"*D90A
[ 11:18:21.735 ] [27:INFO] res: \r\n%GPS: $GPGGA,111821.000,0300.0000,N,00300.0000,E,1,09,1.0,0.00,M,,,,0000*3D\r\n$GPRMC,111821.000,A,0300.0000,N,00300.0000,E,0.00,000.00,301214,,,A*61\r\n\r\nOK\r\n
[ 11:18:22.749 ] [27:INFO] cmd: ATS89?*47C6
[ 11:18:22.749 ] [27:INFO] res: \r\n00001\r\n\r\nOK\r\n
[ 11:18:22.749 ] [27:INFO] cmd: AT%GPS=30,2,"RMC","GGA"*D90A
[ 11:18:22.749 ] [27:INFO] res: \r\n%GPS: $GPGGA,111822.000,0300.0000,N,00300.0000,E,1,09,1.0,0.00,M,,,,0000*3E\r\n$GPRMC,111822.000,A,0300.0000,N,00300.0000,E,0.00,000.00,301214,,,A*62\r\n\r\nOK\r\n
[ 11:18:23.769 ] [27:INFO] cmd: ATS89?*47C6
[ 11:18:23.769 ] [27:INFO] res: \r\n00001\r\n\r\nOK\r\n
[ 11:18:23.769 ] [27:INFO] cmd: AT%GPS=30,2,"RMC","GGA"*D90A
[ 11:18:23.769 ] [27:INFO] res: \r\n%GPS: $GPGGA,111823.000,0300.0000,N,00300.0000,E,1,09,1.0,0.00,M,,,,0000*3F\r\n$GPRMC,111823.000,A,0300.0000,N,00300.0000,E,0.00,000.00,301214,,,A*63\r\n\r\nOK\r\n
[ 11:18:24.779 ] [27:INFO] cmd: ATS89?*47C6
[ 11:18:24.779 ] [27:INFO] res: \r\n00001\r\n\r\nOK\r\n
[ 11:18:24.779 ] [27:INFO] cmd: AT%GPS=30,2,"RMC","GGA"*D90A
[ 11:18:24.779 ] [27:INFO] res: \r\n%GPS: $GPGGA,111824.000,0300.0000,N,00300.0000,E,1,09,1.0,0.00,M,,,,0000*38\r\n$GPRMC,111824.000,A,0300.0000,N,00300.0000,E,0.00,000.00,301214,,,A*64\r\n\r\nOK\r\n
[ 11:18:25.799 ] [27:INFO] cmd: ATS89?*47C6
[ 11:18:25.799 ] [27:INFO] res: \r\n00001\r\n\r\nOK\r\n
[ 11:18:25.799 ] [27:INFO] cmd: AT%GPS=30,2,"RMC","GGA"*D90A
[ 11:18:25.799 ] [27:INFO] res: \r\n%GPS: $GPGGA,111825.000,0300.0000,N,00300.0000,E,1,09,1.0,0.00,M,,,,0000*39\r\n$GPRMC,111825.000,A,0300.0000,N,00300.0000,E,0.00,000.00,301214,,,A*65\r\n\r\nOK\r\n
[ 11:18:26.811 ] [27:INFO] cmd: ATS89?*47C6
[ 11:18:26.811 ] [27:INFO] res: \r\n00001\r\n\r\nOK\r\n
[ 11:18:26.811 ] [27:INFO] cmd: AT%GPS=30,2,"RMC","GGA"*D90A
[ 11:18:26.811 ] [27:INFO] res: \r\n%GPS: $GPGGA,111826.000,0300.0000,N,00300.0000,E,1,09,1.0,0.00,M,,,,0000*3A\r\n$GPRMC,111826.000,A,0300.0000,N,00300.0000,E,0.00,000.00,301214,,,A*66\r\n\r\nOK\r\n
[ 11:18:27.821 ] [27:INFO] cmd: ATS89?*47C6
[ 11:18:27.821 ] [27:INFO] res: \r\n00001\r\n\r\nOK\r\n
[ 11:18:27.821 ] [27:INFO] cmd: AT%GPS=30,2,"RMC","GGA"*D90A
[ 11:18:27.821 ] [27:INFO] res: \r\n%GPS: $GPGGA,111827.000,0300.0000,N,00300.0000,E,1,09,1.0,0.00,M,,,,0000*3B\r\n$GPRMC,111827.000,A,0300.0000,N,00300.0000,E,0.00,000.00,301214,,,A*67\r\n\r\nOK\r\n
[ 11:18:28.833 ] [27:INFO] cmd: ATS89?*47C6
[ 11:18:28.833 ] [27:INFO] res: \r\n00001\r\n\r\nOK\r\n
[ 11:18:28.833 ] [27:INFO] cmd: AT%GPS=30,2,"RMC","GGA"*D90A
[ 11:18:28.833 ] [27:INFO] res: \r\n%GPS: $GPGGA,111828.000,0300.0000,N,00300.0000,E,1,09,1.0,0.00,M,,,,0000*34\r\n$GPRMC,111828.000,A,0300.0000,N,00300.0000,E,0.00,000.00,301214,,,A*68\r\n\r\nOK\r\n
[ 11:18:29.853 ] [27:INFO] cmd: ATS89?*47C6
[ 11:18:29.853 ] [27:INFO] res: \r\n00001\r\n\r\nOK\r\n
[ 11:18:29.853 ] [27:INFO] cmd: AT%GPS=30,2,"RMC","GGA"*D90A
[ 11:18:29.853 ] [27:INFO] res: \r\n%GPS: $GPGGA,111829.000,0300.0000,N,00300.0000,E,1,09,1.0,0.00,M,,,,0000*35\r\n$GPRMC,111829.000,A,0300.0000,N,00300.0000,E,0.00,000.00,301214,,,A*69\r\n\r\nOK\r\n
[ 11:18:30.863 ] [27:INFO] cmd: ATS89?*47C6
[ 11:18:30.863 ] [27:INFO] res: \r\n00001\r\n\r\nOK\r\n
[ 11:18:30.863 ] [27:INFO] cmd: AT%GPS=30,2,"RMC","GGA"*D90A
[ 11:18:30.863 ] [27:INFO] res: \r\n%GPS: $GPGGA,111830.000,0300.0000,N,00300.0000,E,1,09,1.0,0.00,M,,,,0000*3D\r\n$GPRMC,111830.000,A,0300.0000,N,00300.0000,E,0.00,000.00,301214,,,A*61\r\n\r\nOK\r\n
[ 11:18:31.874 ] [27:INFO] cmd: ATS89?*47C6
[ 11:18:31.874 ] [27:INFO] res: \r\n00001\r\n\r\nOK\r\n
[ 11:18:31.874 ] [27:INFO] cmd: AT%GPS=30,2,"RMC","GGA"*D90A
[ 11:18:31.874 ] [27:INFO] res: \r\n%GPS: $GPGGA,111831.000,0300.0000,N,00300.0000,E,1,09,1.0,0.00,M,,,,0000*3C\r\n$GPRMC,111831.000,A,0300.0000,N,00300.0000,E,0.00,000.00,301214,,,A*60\r\n\r\nOK\r\n
[ 11:18:32.894 ] [27:INFO] cmd: ATS89?*47C6
[ 11:18:32.894 ] [27:INFO] res: \r\n00001\r\n\r\nOK\r\n
[ 11:18:32.894 ] [27:INFO] cmd: AT%GPS=30,2,"RMC","GGA"*D90A
[ 11:18:32.894 ] [27:INFO] res: \r\n%GPS: $GPGGA,111832.000,0300.0000,N,00300.0000,E,1,09,1.0,0.00,M,,,,0000*3F\r\n$GPRMC,111832.000,A,0300.0000,N,00300.0000,E,0.00,000.00,301214,,,A*63\r\n\r\nOK\r\n
[ 11:18:33.905 ] [27:INFO] cmd: ATS89?*47C6
[ 11:18:33.905 ] [27:INFO] res: \r\n00001\r\n\r\nOK\r\n
[ 11:18:33.905 ] [27:INFO] cmd: AT%GPS=30,2,"RMC","GGA"*D90A
[ 11:18:33.905 ] [27:INFO] res: \r\n%GPS: $GPGGA,111833.000,0300.0000,N,00300.0000,E,1,09,1.0,0.00,M,,,,0000*3E\r\n$GPRMC,111833.000,A,0300.0000,N,00300.0000,E,0.00,000.00,301214,,,A*62\r\n\r\nOK\r\n
[ 11:18:34.925 ] [27:INFO] cmd: ATS89?*47C6
[ 11:18:34.935 ] [27:INFO] res: \r\n00001\r\n\r\nOK\r\n
[ 11:18:34.935 ] [27:INFO] cmd: AT%GPS=30,2,"RMC","GGA"*D90A
[ 11:18:34.935 ] [27:INFO] res: \r\n%GPS: $GPGGA,111834.000,0300.0000,N,00300.0000,E,1,09,1.0,0.00,M,,,,0000*39\r\n$GPRMC,111834.000,A,0300.0000,N,00300.0000,E,0.00,000.00,301214,,,A*65\r\n\r\nOK\r\n
[ 11:18:35.935 ] [27:INFO] cmd: ATS89?*47C6
[ 11:18:35.935 ] [27:INFO] res: \r\n00001\r\n\r\nOK\r\n
[ 11:18:35.935 ] [27:INFO] cmd: AT%GPS=30,2,"RMC","GGA"*D90A
[ 11:18:35.935 ] [27:INFO] res: \r\n%GPS: $GPGGA,111835.000,0300.0000,N,00300.0000,E,1,09,1.0,0.00,M,,,,0000*38\r\n$GPRMC,111835.000,A,0300.0000,N,00300.0000,E,0.00,000.00,301214,,,A*64\r\n\r\nOK\r\n
[ 11:18:36.947 ] [27:INFO] cmd: ATS89?*47C6
[ 11:18:36.947 ] [27:INFO] res: \r\n00001\r\n\r\nOK\r\n
[ 11:18:36.947 ] [27:INFO] cmd: AT%GPS=30,2,"RMC","GGA"*D90A
[ 11:18:36.947 ] [27:INFO] res: \r\n%GPS: $GPGGA,111836.000,0300.0000,N,00300.0000,E,1,09,1.0,0.00,M,,,,0000*3B\r\n$GPRMC,111836.000,A,0300.0000,N,00300.0000,E,0.00,000.00,301214,,,A*67\r\n\r\nOK\r\n
[ 11:18:37.967 ] [27:INFO] cmd: ATS89?*47C6
[ 11:18:37.967 ] [27:INFO] res: \r\n00001\r\n\r\nOK\r\n
[ 11:18:37.967 ] [27:INFO] cmd: AT%GPS=30,2,"RMC","GGA"*D90A
[ 11:18:37.967 ] [27:INFO] res: \r\n%GPS: $GPGGA,111837.000,0300.0000,N,00300.0000,E,1,09,1.0,0.00,M,,,,0000*3A\r\n$GPRMC,111837.000,A,0300.0000,N,00300.0000,E,0.00,000.00,301214,,,A*66\r\n\r\nOK\r\n
[ 11:18:38.977 ] [27:INFO] cmd: ATS89?*47C6
[ 11:18:38.977 ] [27:INFO] res: \r\n00001\r\n\r\nOK\r\n
[ 11:18:38.977 ] [27:INFO] cmd: AT%GPS=30,2,"RMC","GGA"*D90A
[ 11:18:38.987 ] [27:INFO] res: \r\n%GPS: $GPGGA,111838.000,0300.0000,N,00300.0000,E,1,09,1.0,0.00,M,,,,0000*35\r\n$GPRMC,111838.000,A,0300.0000,N,00300.0000,E,0.00,000.00,301214,,,A*69\r\n\r\nOK\r\n
[ 11:18:39.987 ] [27:INFO] cmd: ATS89?*47C6
[ 11:18:39.987 ] [27:INFO] res: \r\n00001\r\n\r\nOK\r\n
[ 11:18:39.987 ] [27:INFO] cmd: AT%GPS=30,2,"RMC","GGA"*D90A
[ 11:18:39.997 ] [27:INFO] res: \r\n%GPS: $GPGGA,111839.000,0300.0000,N,00300.0000,E,1,09,1.0,0.00,M,,,,0000*34\r\n$GPRMC,111839.000,A,0300.0000,N,00300.0000,E,0.00,000.00,301214,,,A*68\r\n\r\nOK\r\n
[ 11:18:41.007 ] [27:INFO] cmd: ATS89?*47C6
[ 11:18:41.007 ] [27:INFO] res: \r\n00001\r\n\r\nOK\r\n
[ 11:18:41.007 ] [27:INFO] cmd: AT%GPS=30,2,"RMC","GGA"*D90A
[ 11:18:41.007 ] [27:INFO] res: \r\n%GPS: $GPGGA,111841.000,0300.0000,N,00300.0000,E,1,09,1.0,0.00,M,,,,0000*3B\r\n$GPRMC,111841.000,A,0300.0000,N,00300.0000,E,0.00,000.00,301214,,,A*67\r\n\r\nOK\r\n
[ 11:18:42.023 ] [27:INFO] cmd: ATS89?*47C6
[ 11:18:42.023 ] [27:INFO] res: \r\n00001\r\n\r\nOK\r\n
[ 11:18:42.023 ] [27:INFO] cmd: AT%GPS=30,2,"RMC","GGA"*D90A
[ 11:18:42.023 ] [27:INFO] res: \r\n%GPS: $GPGGA,111842.000,0300.0000,N,00300.0000,E,1,09,1.0,0.00,M,,,,0000*38\r\n$GPRMC,111842.000,A,0300.0000,N,00300.0000,E,0.00,000.00,301214,,,A*64\r\n\r\nOK\r\n
[ 11:18:43.033 ] [27:INFO] cmd: ATS89?*47C6
[ 11:18:43.033 ] [27:INFO] res: \r\n00001\r\n\r\nOK\r\n
[ 11:18:43.033 ] [27:INFO] cmd: AT%GPS=30,2,"RMC","GGA"*D90A
[ 11:18:43.033 ] [27:INFO] res: \r\n%GPS: $GPGGA,111843.000,0300.0000,N,00300.0000,E,1,09,1.0,0.00,M,,,,0000*39\r\n$GPRMC,111843.000,A,0300.0000,N,00300.0000,E,0.00,000.00,301214,,,A*65\r\n\r\nOK\r\n
[ 11:18:44.043 ] [27:INFO] cmd: ATS89?*47C6
[ 11:18:44.043 ] [27:INFO] res: \r\n00001\r\n\r\nOK\r\n
[ 11:18:44.043 ] [27:INFO] cmd: AT%GPS=30,2,"RMC","GGA"*D90A
[ 11:18:44.043 ] [27:INFO] res: \r\n%GPS: $GPGGA,111844.000,0300.0000,N,00300.0000,E,1,09,1.0,0.00,M,,,,0000*3E\r\n$GPRMC,111844.000,A,0300.0000,N,00300.0000,E,0.00,000.00,301214,,,A*62\r\n\r\nOK\r\n
[ 11:18:45.063 ] [27:INFO] cmd: ATS89?*47C6
[ 11:18:45.063 ] [27:INFO] res: \r\n00001\r\n\r\nOK\r\n
[ 11:18:45.063 ] [27:INFO] cmd: AT%GPS=30,2,"RMC","GGA"*D90A
[ 11:18:45.063 ] [27:INFO] res: \r\n%GPS: $GPGGA,111845.000,0300.0000,N,00300.0000,E,1,09,1.0,0.00,M,,,,0000*3F\r\n$GPRMC,111845.000,A,0300.0000,N,00300.0000,E,0.00,000.00,301214,,,A*63\r\n\r\nOK\r\n
[ 11:18:46.073 ] [27:INFO] cmd: ATS89?*47C6
[ 11:18:46.073 ] [27:INFO] res: \r\n00001\r\n\r\nOK\r\n
[ 11:18:46.073 ] [27:INFO] cmd: AT%GPS=30,2,"RMC","GGA"*D90A
[ 11:18:46.073 ] [27:INFO] res: \r\n%GPS: $GPGGA,111846.000,0300.0000,N,00300.0000,E,1,09,1.0,0.00,M,,,,0000*3C\r\n$GPRMC,111846.000,A,0300.0000,N,00300.0000,E,0.00,000.00,301214,,,A*60\r\n\r\nOK\r\n
[ 11:18:47.093 ] [27:INFO] cmd: ATS89?*47C6
[ 11:18:47.093 ] [27:INFO] res: \r\n00001\r\n\r\nOK\r\n
[ 11:18:47.093 ] [27:INFO] cmd: AT%GPS=30,2,"RMC","GGA"*D90A
[ 11:18:47.093 ] [27:INFO] res: \r\n%GPS: $GPGGA,111847.000,0300.0000,N,00300.0000,E,1,09,1.0,0.00,M,,,,0000*3D\r\n$GPRMC,111847.000,A,0300.0000,N,00300.0000,E,0.00,000.00,301214,,,A*61\r\n\r\nOK\r\n
[ 11:18:48.103 ] [27:INFO] cmd: ATS89?*47C6
[ 11:18:48.103 ] [27:INFO] res: \r\n00001\r\n\r\nOK\r\n
[ 11:18:48.103 ] [27:INFO] cmd: AT%GPS=30,2,"RMC","GGA"*D90A
[ 11:18:48.103 ] [27:INFO] res: \r\n%GPS: $GPGGA,111848.000,0300.0000,N,00300.0000,E,1,09,1.0,0.00,M,,,,0000*32\r\n$GPRMC,111848.000,A,0300.0000,N,00300.0000,E,0.00,000.00,301214,,,A*6E\r\n\r\nOK\r\n
[ 11:18:49.113 ] [27:INFO] cmd: ATS89?*47C6
[ 11:18:49.113 ] [27:INFO] res: \r\n00001\r\n\r\nOK\r\n
[ 11:18:49.113 ] [27:INFO] cmd: AT%GPS=30,2,"RMC","GGA"*D90A
[ 11:18:49.113 ] [27:INFO] res: \r\n%GPS: $GPGGA,111849.000,0300.0000,N,00300.0000,E,1,09,1.0,0.00,M,,,,0000*33\r\n$GPRMC,111849.000,A,0300.0000,N,00300.0000,E,0.00,000.00,301214,,,A*6F\r\n\r\nOK\r\n
[ 11:18:50.133 ] [27:INFO] cmd: ATS89?*47C6
[ 11:18:50.133 ] [27:INFO] res: \r\n00001\r\n\r\nOK\r\n
[ 11:18:50.133 ] [27:INFO] cmd: AT%GPS=30,2,"RMC","GGA"*D90A
[ 11:18:50.133 ] [27:INFO] res: \r\n%GPS: $GPGGA,111850.000,0300.0000,N,00300.0000,E,1,09,1.0,0.00,M,,,,0000*3B\r\n$GPRMC,111850.000,A,0300.0000,N,00300.0000,E,0.00,000.00,301214,,,A*67\r\n\r\nOK\r\n
[ 11:18:51.143 ] [27:INFO] cmd: ATS89?*47C6
[ 11:18:51.143 ] [27:INFO] res: \r\n00001\r\n\r\nOK\r\n
[ 11:18:51.143 ] [27:INFO] cmd: AT%GPS=30,2,"RMC","GGA"*D90A
[ 11:18:51.143 ] [27:INFO] res: \r\n%GPS: $GPGGA,111851.000,0300.0000,N,00300.0000,E,1,09,1.0,0.00,M,,,,0000*3A\r\n$GPRMC,111851.000,A,0300.0000,N,00300.0000,E,0.00,000.00,301214,,,A*66\r\n\r\nOK\r\n
[ 11:18:52.155 ] [27:INFO] cmd: ATS89?*47C6
[ 11:18:52.155 ] [27:INFO] res: \r\n00001\r\n\r\nOK\r\n
[ 11:18:52.155 ] [27:INFO] cmd: AT%GPS=30,2,"RMC","GGA"*D90A
[ 11:18:52.155 ] [27:INFO] res: \r\n%GPS: $GPGGA,111852.000,0300.0000,N,00300.0000,E,1,09,1.0,0.00,M,,,,0000*39\r\n$GPRMC,111852.000,A,0300.0000,N,00300.0000,E,0.00,000.00,301214,,,A*65\r\n\r\nOK\r\n
[ 11:18:53.173 ] [27:INFO] cmd: ATS89?*47C6
[ 11:18:53.173 ] [27:INFO] res: \r\n00001\r\n\r\nOK\r\n
[ 11:18:53.173 ] [27:INFO] cmd: AT%GPS=30,2,"RMC","GGA"*D90A
[ 11:18:53.173 ] [27:INFO] res: \r\n%GPS: $GPGGA,111853.000,0300.0000,N,00300.0000,E,1,09,1.0,0.00,M,,,,0000*38\r\n$GPRMC,111853.000,A,0300.0000,N,00300.0000,E,0.00,000.00,301214,,,A*64\r\n\r\nOK\r\n
[ 11:18:54.183 ] [27:INFO] cmd: ATS89?*47C6
[ 11:18:54.183 ] [27:INFO] res: \r\n00001\r\n\r\nOK\r\n
[ 11:18:54.183 ] [27:INFO] cmd: AT%GPS=30,2,"RMC","GGA"*D90A
[ 11:18:54.183 ] [27:INFO] res: \r\n%GPS: $GPGGA,111854.000,0300.0000,N,00300.0000,E,1,09,1.0,0.00,M,,,,0000*3F\r\n$GPRMC,111854.000,A,0300.0000,N,00300.0000,E,0.00,000.00,301214,,,A*63\r\n\r\nOK\r\n
[ 11:18:55.203 ] [27:INFO] cmd: ATS89?*47C6
[ 11:18:55.213 ] [27:INFO] res: \r\n00001\r\n\r\nOK\r\n
[ 11:18:55.213 ] [27:INFO] cmd: AT%GPS=30,2,"RMC","GGA"*D90A
[ 11:18:55.213 ] [27:INFO] res: \r\n%GPS: $GPGGA,111855.000,0300.0000,N,00300.0000,E,1,09,1.0,0.00,M,,,,0000*3E\r\n$GPRMC,111855.000,A,0300.0000,N,00300.0000,E,0.00,000.00,301214,,,A*62\r\n\r\nOK\r\n
[ 11:18:56.213 ] [27:INFO] cmd: ATS89?*47C6
[ 11:18:56.213 ] [27:INFO] res: \r\n00001\r\n\r\nOK\r\n
[ 11:18:56.213 ] [27:INFO] cmd: AT%GPS=30,2,"RMC","GGA"*D90A
[ 11:18:56.213 ] [27:INFO] res: \r\n%GPS: $GPGGA,111856.000,0300.0000,N,00300.0000,E,1,09,1.0,0.00,M,,,,0000*3D\r\n$GPRMC,111856.000,A,0300.0000,N,00300.0000,E,0.00,000.00,301214,,,A*61\r\n\r\nOK\r\n
[ 11:18:57.228 ] [27:INFO] cmd: ATS89?*47C6
[ 11:18:57.228 ] [27:INFO] res: \r\n00001\r\n\r\nOK\r\n
[ 11:18:57.228 ] [27:INFO] cmd: AT%GPS=30,2,"RMC","GGA"*D90A
[ 11:18:57.228 ] [27:INFO] res: \r\n%GPS: $GPGGA,111857.000,0300.0000,N,00300.0000,E,1,09,1.0,0.00,M,,,,0000*3C\r\n$GPRMC,111857.000,A,0300.0000,N,00300.0000,E,0.00,000.00,301214,,,A*60\r\n\r\nOK\r\n
[ 11:18:58.238 ] [27:INFO] cmd: ATS89?*47C6
[ 11:18:58.238 ] [27:INFO] res: \r\n00001\r\n\r\nOK\r\n
[ 11:18:58.238 ] [27:INFO] cmd: AT%GPS=30,2,"RMC","GGA"*D90A
[ 11:18:58.238 ] [27:INFO] res: \r\n%GPS: $GPGGA,111858.000,0300.0000,N,00300.0000,E,1,09,1.0,0.00,M,,,,0000*33\r\n$GPRMC,111858.000,A,0300.0000,N,00300.0000,E,0.00,000.00,301214,,,A*6F\r\n\r\nOK\r\n
[ 11:18:59.254 ] [27:INFO] cmd: ATS89?*47C6
[ 11:18:59.261 ] [27:INFO] res: \r\n00001\r\n\r\nOK\r\n
[ 11:18:59.262 ] [27:INFO] cmd: AT%GPS=30,2,"RMC","GGA"*D90A
[ 11:18:59.263 ] [27:INFO] res: \r\n%GPS: $GPGGA,111859.000,0300.0000,N,00300.0000,E,1,09,1.0,0.00,M,,,,0000*32\r\n$GPRMC,111859.000,A,0300.0000,N,00300.0000,E,0.00,000.00,301214,,,A*6E\r\n\r\nOK\r\n
[ 11:19:00.266 ] [27:INFO] cmd: ATS89?*47C6
[ 11:19:00.266 ] [27:INFO] res: \r\n00001\r\n\r\nOK\r\n
[ 11:19:00.266 ] [27:INFO] cmd: AT%GPS=30,2,"RMC","GGA"*D90A
[ 11:19:00.266 ] [27:INFO] res: \r\n%GPS: $GPGGA,111900.000,0300.0000,N,00300.0000,E,1,09,1.0,0.00,M,,,,0000*3F\r\n$GPRMC,111900.000,A,0300.0000,N,00300.0000,E,0.00,000.00,301214,,,A*63\r\n\r\nOK\r\n
[ 11:19:01.286 ] [27:INFO] cmd: ATS89?*47C6
[ 11:19:01.286 ] [27:INFO] res: \r\n00001\r\n\r\nOK\r\n
[ 11:19:01.286 ] [27:INFO] cmd: AT%GPS=30,2,"RMC","GGA"*D90A
[ 11:19:01.286 ] [27:INFO] res: \r\n%GPS: $GPGGA,111901.000,0300.0000,N,00300.0000,E,1,09,1.0,0.00,M,,,,0000*3E\r\n$GPRMC,111901.000,A,0300.0000,N,00300.0000,E,0.00,000.00,301214,,,A*62\r\n\r\nOK\r\n
[ 11:19:02.298 ] [27:INFO] cmd: ATS89?*47C6
[ 11:19:02.298 ] [27:INFO] res: \r\n00001\r\n\r\nOK\r\n
[ 11:19:02.298 ] [27:INFO] cmd: AT%GPS=30,2,"RMC","GGA"*D90A
[ 11:19:02.298 ] [27:INFO] res: \r\n%GPS: $GPGGA,111902.000,0300.0000,N,00300.0000,E,1,09,1.0,0.00,M,,,,0000*3D\r\n$GPRMC,111902.000,A,0300.0000,N,00300.0000,E,0.00,000.00,301214,,,A*61\r\n\r\nOK\r\n
[ 11:19:03.308 ] [27:INFO] cmd: ATS89?*47C6
[ 11:19:03.308 ] [27:INFO] res: \r\n00001\r\n\r\nOK\r\n
[ 11:19:03.308 ] [27:INFO] cmd: AT%GPS=30,2,"RMC","GGA"*D90A
[ 11:19:03.308 ] [27:INFO] res: \r\n%GPS: $GPGGA,111903.000,0300.0000,N,00300.0000,E,1,09,1.0,0.00,M,,,,0000*3C\r\n$GPRMC,111903.000,A,0300.0000,N,00300.0000,E,0.00,000.00,301214,,,A*60\r\n\r\nOK\r\n
[ 11:19:04.328 ] [27:INFO] cmd: ATS89?*47C6
[ 11:19:04.328 ] [27:INFO] res: \r\n00001\r\n\r\nOK\r\n
[ 11:19:04.328 ] [27:INFO] cmd: AT%GPS=30,2,"RMC","GGA"*D90A
[ 11:19:04.328 ] [27:INFO] res: \r\n%GPS: $GPGGA,111904.000,0300.0000,N,00300.0000,E,1,09,1.0,0.00,M,,,,0000*3B\r\n$GPRMC,111904.000,A,0300.0000,N,00300.0000,E,0.00,000.00,301214,,,A*67\r\n\r\nOK\r\n
[ 11:19:05.338 ] [27:INFO] cmd: ATS89?*47C6
[ 11:19:05.338 ] [27:INFO] res: \r\n00001\r\n\r\nOK\r\n
[ 11:19:05.338 ] [27:INFO] cmd: AT%GPS=30,2,"RMC","GGA"*D90A
[ 11:19:05.338 ] [27:INFO] res: \r\n%GPS: $GPGGA,111905.000,0300.0000,N,00300.0000,E,1,09,1.0,0.00,M,,,,0000*3A\r\n$GPRMC,111905.000,A,0300.0000,N,00300.0000,E,0.00,000.00,301214,,,A*66\r\n\r\nOK\r\n
[ 11:19:06.358 ] [27:INFO] cmd: ATS89?*47C6
[ 11:19:06.358 ] [27:INFO] res: \r\n00001\r\n\r\nOK\r\n
[ 11:19:06.358 ] [27:INFO] cmd: AT%GPS=30,2,"RMC","GGA"*D90A
[ 11:19:06.358 ] [27:INFO] res: \r\n%GPS: $GPGGA,111906.000,0300.0000,N,00300.0000,E,1,09,1.0,0.00,M,,,,0000*39\r\n$GPRMC,111906.000,A,0300.0000,N,00300.0000,E,0.00,000.00,301214,,,A*65\r\n\r\nOK\r\n
[ 11:19:07.370 ] [27:INFO] cmd: ATS89?*47C6
[ 11:19:07.370 ] [27:INFO] res: \r\n00001\r\n\r\nOK\r\n
[ 11:19:07.370 ] [27:INFO] cmd: AT%GPS=30,2,"RMC","GGA"*D90A
[ 11:19:07.370 ] [27:INFO] res: \r\n%GPS: $GPGGA,111907.000,0300.0000,N,00300.0000,E,1,09,1.0,0.00,M,,,,0000*38\r\n$GPRMC,111907.000,A,0300.0000,N,00300.0000,E,0.00,000.00,301214,,,A*64\r\n\r\nOK\r\n
[ 11:19:08.380 ] [27:INFO] cmd: ATS89?*47C6
[ 11:19:08.380 ] [27:INFO] res: \r\n00001\r\n\r\nOK\r\n
[ 11:19:08.380 ] [27:INFO] cmd: AT%GPS=30,2,"RMC","GGA"*D90A
[ 11:19:08.380 ] [27:INFO] res: \r\n%GPS: $GPGGA,111908.000,0300.0000,N,00300.0000,E,1,09,1.0,0.00,M,,,,0000*37\r\n$GPRMC,111908.000,A,0300.0000,N,00300.0000,E,0.00,000.00,301214,,,A*6B\r\n\r\nOK\r\n
[ 11:19:09.400 ] [27:INFO] cmd: ATS89?*47C6
[ 11:19:09.400 ] [27:INFO] res: \r\n00001\r\n\r\nOK\r\n
[ 11:19:09.400 ] [27:INFO] cmd: AT%GPS=30,2,"RMC","GGA"*D90A
[ 11:19:09.400 ] [27:INFO] res: \r\n%GPS: $GPGGA,111909.000,0300.0000,N,00300.0000,E,1,09,1.0,0.00,M,,,,0000*36\r\n$GPRMC,111909.000,A,0300.0000,N,00300.0000,E,0.00,000.00,301214,,,A*6A\r\n\r\nOK\r\n
[ 11:19:10.410 ] [27:INFO] cmd: ATS89?*47C6
[ 11:19:10.410 ] [27:INFO] res: \r\n00001\r\n\r\nOK\r\n
[ 11:19:10.410 ] [27:INFO] cmd: AT%GPS=30,2,"RMC","GGA"*D90A
[ 11:19:10.410 ] [27:INFO] res: \r\n%GPS: $GPGGA,111910.000,0300.0000,N,00300.0000,E,1,09,1.0,0.00,M,,,,0000*3E\r\n$GPRMC,111910.000,A,0300.0000,N,00300.0000,E,0.00,000.00,301214,,,A*62\r\n\r\nOK\r\n
[ 11:19:11.420 ] [27:INFO] cmd: ATS89?*47C6
[ 11:19:11.420 ] [27:INFO] res: \r\n00001\r\n\r\nOK\r\n
[ 11:19:11.420 ] [27:INFO] cmd: AT%GPS=30,2,"RMC","GGA"*D90A
[ 11:19:11.430 ] [27:INFO] res: \r\n%GPS: $GPGGA,111911.000,0300.0000,N,00300.0000,E,1,09,1.0,0.00,M,,,,0000*3F\r\n$GPRMC,111911.000,A,0300.0000,N,00300.0000,E,0.00,000.00,301214,,,A*63\r\n\r\nOK\r\n
[ 11:19:12.441 ] [27:INFO] cmd: ATS89?*47C6
[ 11:19:12.441 ] [27:INFO] res: \r\n00001\r\n\r\nOK\r\n
[ 11:19:12.441 ] [27:INFO] cmd: AT%GPS=30,2,"RMC","GGA"*D90A
[ 11:19:12.451 ] [27:INFO] res: \r\n%GPS: $GPGGA,111912.000,0300.0000,N,00300.0000,E,1,09,1.0,0.00,M,,,,0000*3C\r\n$GPRMC,111912.000,A,0300.0000,N,00300.0000,E,0.00,000.00,301214,,,A*60\r\n\r\nOK\r\n
[ 11:19:13.451 ] [27:INFO] cmd: ATS89?*47C6
[ 11:19:13.451 ] [27:INFO] res: \r\n00001\r\n\r\nOK\r\n
[ 11:19:13.451 ] [27:INFO] cmd: AT%GPS=30,2,"RMC","GGA"*D90A
[ 11:19:13.451 ] [27:INFO] res: \r\n%GPS: $GPGGA,111913.000,0300.0000,N,00300.0000,E,1,09,1.0,0.00,M,,,,0000*3D\r\n$GPRMC,111913.000,A,0300.0000,N,00300.0000,E,0.00,000.00,301214,,,A*61\r\n\r\nOK\r\n
[ 11:19:14.464 ] [27:INFO] cmd: ATS89?*47C6
[ 11:19:14.464 ] [27:INFO] res: \r\n00001\r\n\r\nOK\r\n
[ 11:19:14.464 ] [27:INFO] cmd: AT%GPS=30,2,"RMC","GGA"*D90A
[ 11:19:14.464 ] [27:INFO] res: \r\n%GPS: $GPGGA,111914.000,0300.0000,N,00300.0000,E,1,09,1.0,0.00,M,,,,0000*3A\r\n$GPRMC,111914.000,A,0300.0000,N,00300.0000,E,0.00,000.00,301214,,,A*66\r\n\r\nOK\r\n
[ 11:19:15.484 ] [27:INFO] cmd: ATS89?*47C6
[ 11:19:15.484 ] [27:INFO] res: \r\n00001\r\n\r\nOK\r\n
[ 11:19:15.484 ] [27:INFO] cmd: AT%GPS=30,2,"RMC","GGA"*D90A
[ 11:19:15.484 ] [27:INFO] res: \r\n%GPS: $GPGGA,111915.000,0300.0000,N,00300.0000,E,1,09,1.0,0.00,M,,,,0000*3B\r\n$GPRMC,111915.000,A,0300.0000,N,00300.0000,E,0.00,000.00,301214,,,A*67\r\n\r\nOK\r\n
[ 11:19:16.494 ] [27:INFO] cmd: ATS89?*47C6
[ 11:19:16.494 ] [27:INFO] res: \r\n00001\r\n\r\nOK\r\n
[ 11:19:16.494 ] [27:INFO] cmd: AT%GPS=30,2,"RMC","GGA"*D90A
[ 11:19:16.504 ] [27:INFO] res: \r\n%GPS: $GPGGA,111916.000,0300.0000,N,00300.0000,E,1,09,1.0,0.00,M,,,,0000*38\r\n$GPRMC,111916.000,A,0300.0000,N,00300.0000,E,0.00,000.00,301214,,,A*64\r\n\r\nOK\r\n
[ 11:19:17.509 ] [27:INFO] cmd: ATS89?*47C6
[ 11:19:17.509 ] [27:INFO] res: \r\n00001\r\n\r\nOK\r\n
[ 11:19:17.509 ] [27:INFO] cmd: AT%GPS=30,2,"RMC","GGA"*D90A
[ 11:19:17.509 ] [27:INFO] res: \r\n%GPS: $GPGGA,111917.000,0300.0000,N,00300.0000,E,1,09,1.0,0.00,M,,,,0000*39\r\n$GPRMC,111917.000,A,0300.0000,N,00300.0000,E,0.00,000.00,301214,,,A*65\r\n\r\nOK\r\n
[ 11:19:18.519 ] [27:INFO] cmd: ATS89?*47C6
[ 11:19:18.519 ] [27:INFO] res: \r\n00001\r\n\r\nOK\r\n
[ 11:19:18.519 ] [27:INFO] cmd: AT%GPS=30,2,"RMC","GGA"*D90A
[ 11:19:18.519 ] [27:INFO] res: \r\n%GPS: $GPGGA,111918.000,0300.0000,N,00300.0000,E,1,09,1.0,0.00,M,,,,0000*36\r\n$GPRMC,111918.000,A,0300.0000,N,00300.0000,E,0.00,000.00,301214,,,A*6A\r\n\r\nOK\r\n
[ 11:19:19.539 ] [27:INFO] cmd: ATS89?*47C6
[ 11:19:19.539 ] [27:INFO] res: \r\n00001\r\n\r\nOK\r\n
[ 11:19:19.539 ] [27:INFO] cmd: AT%GPS=30,2,"RMC","GGA"*D90A
[ 11:19:19.539 ] [27:INFO] res: \r\n%GPS: $GPGGA,111919.000,0300.0000,N,00300.0000,E,1,09,1.0,0.00,M,,,,0000*37\r\n$GPRMC,111919.000,A,0300.0000,N,00300.0000,E,0.00,000.00,301214,,,A*6B\r\n\r\nOK\r\n
[ 11:19:20.549 ] [27:INFO] cmd: ATS89?*47C6
[ 11:19:20.549 ] [27:INFO] res: \r\n00001\r\n\r\nOK\r\n
[ 11:19:20.549 ] [27:INFO] cmd: AT%GPS=30,2,"RMC","GGA"*D90A
[ 11:19:20.549 ] [27:INFO] res: \r\n%GPS: $GPGGA,111920.000,0300.0000,N,00300.0000,E,1,09,1.0,0.00,M,,,,0000*3D\r\n$GPRMC,111920.000,A,0300.0000,N,00300.0000,E,0.00,000.00,301214,,,A*61\r\n\r\nOK\r\n
[ 11:19:21.569 ] [27:INFO] cmd: ATS89?*47C6
[ 11:19:21.569 ] [27:INFO] res: \r\n00001\r\n\r\nOK\r\n
[ 11:19:21.569 ] [27:INFO] cmd: AT%GPS=30,2,"RMC","GGA"*D90A
[ 11:19:21.569 ] [27:INFO] res: \r\n%GPS: $GPGGA,111921.000,0300.0000,N,00300.0000,E,1,09,1.0,0.00,M,,,,0000*3C\r\n$GPRMC,111921.000,A,0300.0000,N,00300.0000,E,0.00,000.00,301214,,,A*60\r\n\r\nOK\r\n
[ 11:19:22.581 ] [27:INFO] cmd: ATS89?*47C6
[ 11:19:22.581 ] [27:INFO] res: \r\n00001\r\n\r\nOK\r\n
[ 11:19:22.581 ] [27:INFO] cmd: AT%GPS=30,2,"RMC","GGA"*D90A
[ 11:19:22.581 ] [27:INFO] res: \r\n%GPS: $GPGGA,111922.000,0300.0000,N,00300.0000,E,1,09,1.0,0.00,M,,,,0000*3F\r\n$GPRMC,111922.000,A,0300.0000,N,00300.0000,E,0.00,000.00,301214,,,A*63\r\n\r\nOK\r\n
[ 11:19:23.591 ] [27:INFO] cmd: ATS89?*47C6
[ 11:19:23.591 ] [27:INFO] res: \r\n00001\r\n\r\nOK\r\n
[ 11:19:23.591 ] [27:INFO] cmd: AT%GPS=30,2,"RMC","GGA"*D90A
[ 11:19:23.591 ] [27:INFO] res: \r\n%GPS: $GPGGA,111923.000,0300.0000,N,00300.0000,E,1,09,1.0,0.00,M,,,,0000*3E\r\n$GPRMC,111923.000,A,0300.0000,N,00300.0000,E,0.00,000.00,301214,,,A*62\r\n\r\nOK\r\n
[ 11:19:24.612 ] [27:INFO] cmd: ATS89?*47C6
[ 11:19:24.612 ] [27:INFO] res: \r\n00001\r\n\r\nOK\r\n
[ 11:19:24.612 ] [27:INFO] cmd: AT%GPS=30,2,"RMC","GGA"*D90A
[ 11:19:24.612 ] [27:INFO] res: \r\n%GPS: $GPGGA,111924.000,0300.0000,N,00300.0000,E,1,09,1.0,0.00,M,,,,0000*39\r\n$GPRMC,111924.000,A,0300.0000,N,00300.0000,E,0.00,000.00,301214,,,A*65\r\n\r\nOK\r\n
[ 11:19:25.622 ] [27:INFO] cmd: ATS89?*47C6
[ 11:19:25.622 ] [27:INFO] res: \r\n00001\r\n\r\nOK\r\n
[ 11:19:25.622 ] [27:INFO] cmd: AT%GPS=30,2,"RMC","GGA"*D90A
[ 11:19:25.622 ] [27:INFO] res: \r\n%GPS: $GPGGA,111925.000,0300.0000,N,00300.0000,E,1,09,1.0,0.00,M,,,,0000*38\r\n$GPRMC,111925.000,A,0300.0000,N,00300.0000,E,0.00,000.00,301214,,,A*64\r\n\r\nOK\r\n
[ 11:19:26.633 ] [27:INFO] cmd: ATS89?*47C6
[ 11:19:26.633 ] [27:INFO] res: \r\n00001\r\n\r\nOK\r\n
[ 11:19:26.633 ] [27:INFO] cmd: AT%GPS=30,2,"RMC","GGA"*D90A
[ 11:19:26.633 ] [27:INFO] res: \r\n%GPS: $GPGGA,111926.000,0300.0000,N,00300.0000,E,1,09,1.0,0.00,M,,,,0000*3B\r\n$GPRMC,111926.000,A,0300.0000,N,00300.0000,E,0.00,000.00,301214,,,A*67\r\n\r\nOK\r\n
[ 11:19:27.645 ] [27:INFO] cmd: ATS89?*47C6
[ 11:19:27.645 ] [27:INFO] res: \r\n00001\r\n\r\nOK\r\n
[ 11:19:27.645 ] [27:INFO] cmd: AT%GPS=30,2,"RMC","GGA"*D90A
[ 11:19:27.655 ] [27:INFO] res: \r\n%GPS: $GPGGA,111927.000,0300.0000,N,00300.0000,E,1,09,1.0,0.00,M,,,,0000*3A\r\n$GPRMC,111927.000,A,0300.0000,N,00300.0000,E,0.00,000.00,301214,,,A*66\r\n\r\nOK\r\n
[ 11:19:28.665 ] [27:INFO] cmd: ATS89?*47C6
[ 11:19:28.665 ] [27:INFO] res: \r\n00001\r\n\r\nOK\r\n
[ 11:19:28.665 ] [27:INFO] cmd: AT%GPS=30,2,"RMC","GGA"*D90A
[ 11:19:28.665 ] [27:INFO] res: \r\n%GPS: $GPGGA,111928.000,0300.0000,N,00300.0000,E,1,09,1.0,0.00,M,,,,0000*35\r\n$GPRMC,111928.000,A,0300.0000,N,00300.0000,E,0.00,000.00,301214,,,A*69\r\n\r\nOK\r\n
[ 11:19:29.675 ] [27:INFO] cmd: ATS89?*47C6
[ 11:19:29.675 ] [27:INFO] res: \r\n00001\r\n\r\nOK\r\n
[ 11:19:29.675 ] [27:INFO] cmd: AT%GPS=30,2,"RMC","GGA"*D90A
[ 11:19:29.675 ] [27:INFO] res: \r\n%GPS: $GPGGA,111929.000,0300.0000,N,00300.0000,E,1,09,1.0,0.00,M,,,,0000*34\r\n$GPRMC,111929.000,A,0300.0000,N,00300.0000,E,0.00,000.00,301214,,,A*68\r\n\r\nOK\r\n
[ 11:19:30.695 ] [27:INFO] cmd: ATS89?*47C6
[ 11:19:30.695 ] [27:INFO] res: \r\n00001\r\n\r\nOK\r\n
[ 11:19:30.695 ] [27:INFO] cmd: AT%GPS=30,2,"RMC","GGA"*D90A
[ 11:19:30.695 ] [27:INFO] res: \r\n%GPS: $GPGGA,111930.000,0300.0000,N,00300.0000,E,1,09,1.0,0.00,M,,,,0000*3C\r\n$GPRMC,111930.000,A,0300.0000,N,00300.0000,E,0.00,000.00,301214,,,A*60\r\n\r\nOK\r\n
[ 11:19:31.705 ] [27:INFO] cmd: ATS89?*47C6
[ 11:19:31.705 ] [27:INFO] res: \r\n00001\r\n\r\nOK\r\n
[ 11:19:31.705 ] [27:INFO] cmd: AT%GPS=30,2,"RMC","GGA"*D90A
[ 11:19:31.705 ] [27:INFO] res: \r\n%GPS: $GPGGA,111931.000,0300.0000,N,00300.0000,E,1,09,1.0,0.00,M,,,,0000*3D\r\n$GPRMC,111931.000,A,0300.0000,N,00300.0000,E,0.00,000.00,301214,,,A*61\r\n\r\nOK\r\n
[ 11:19:32.717 ] [27:INFO] cmd: ATS89?*47C6
[ 11:19:32.717 ] [27:INFO] res: \r\n00001\r\n\r\nOK\r\n
[ 11:19:32.717 ] [27:INFO] cmd: AT%GPS=30,2,"RMC","GGA"*D90A
[ 11:19:32.727 ] [27:INFO] res: \r\n%GPS: $GPGGA,111932.000,0300.0000,N,00300.0000,E,1,09,1.0,0.00,M,,,,0000*3E\r\n$GPRMC,111932.000,A,0300.0000,N,00300.0000,E,0.00,000.00,301214,,,A*62\r\n\r\nOK\r\n
[ 11:19:33.737 ] [27:INFO] cmd: ATS89?*47C6
[ 11:19:33.737 ] [27:INFO] res: \r\n00001\r\n\r\nOK\r\n
[ 11:19:33.737 ] [27:INFO] cmd: AT%GPS=30,2,"RMC","GGA"*D90A
[ 11:19:33.737 ] [27:INFO] res: \r\n%GPS: $GPGGA,111933.000,0300.0000,N,00300.0000,E,1,09,1.0,0.00,M,,,,0000*3F\r\n$GPRMC,111933.000,A,0300.0000,N,00300.0000,E,0.00,000.00,301214,,,A*63\r\n\r\nOK\r\n
[ 11:19:34.747 ] [27:INFO] cmd: ATS89?*47C6
[ 11:19:34.747 ] [27:INFO] res: \r\n00001\r\n\r\nOK\r\n
[ 11:19:34.747 ] [27:INFO] cmd: AT%GPS=30,2,"RMC","GGA"*D90A
[ 11:19:34.747 ] [27:INFO] res: \r\n%GPS: $GPGGA,111934.000,0300.0000,N,00300.0000,E,1,09,1.0,0.00,M,,,,0000*38\r\n$GPRMC,111934.000,A,0300.0000,N,00300.0000,E,0.00,000.00,301214,,,A*64\r\n\r\nOK\r\n
[ 11:19:35.757 ] [27:INFO] cmd: ATS89?*47C6
[ 11:19:35.767 ] [27:INFO] res: \r\n00001\r\n\r\nOK\r\n
[ 11:19:35.767 ] [27:INFO] cmd: AT%GPS=30,2,"RMC","GGA"*D90A
[ 11:19:35.767 ] [27:INFO] res: \r\n%GPS: $GPGGA,111935.000,0300.0000,N,00300.0000,E,1,09,1.0,0.00,M,,,,0000*39\r\n$GPRMC,111935.000,A,0300.0000,N,00300.0000,E,0.00,000.00,301214,,,A*65\r\n\r\nOK\r\n
[ 11:19:36.777 ] [27:INFO] cmd: ATS89?*47C6
[ 11:19:36.777 ] [27:INFO] res: \r\n00001\r\n\r\nOK\r\n
[ 11:19:36.777 ] [27:INFO] cmd: AT%GPS=30,2,"RMC","GGA"*D90A
[ 11:19:36.777 ] [27:INFO] res: \r\n%GPS: $GPGGA,111936.000,0300.0000,N,00300.0000,E,1,09,1.0,0.00,M,,,,0000*3A\r\n$GPRMC,111936.000,A,0300.0000,N,00300.0000,E,0.00,000.00,301214,,,A*66\r\n\r\nOK\r\n
[ 11:19:37.788 ] [27:INFO] cmd: ATS89?*47C6
[ 11:19:37.788 ] [27:INFO] res: \r\n00001\r\n\r\nOK\r\n
[ 11:19:37.788 ] [27:INFO] cmd: AT%GPS=30,2,"RMC","GGA"*D90A
[ 11:19:37.788 ] [27:INFO] res: \r\n%GPS: $GPGGA,111937.000,0300.0000,N,00300.0000,E,1,09,1.0,0.00,M,,,,0000*3B\r\n$GPRMC,111937.000,A,0300.0000,N,00300.0000,E,0.00,000.00,301214,,,A*67\r\n\r\nOK\r\n
[ 11:19:38.808 ] [27:INFO] cmd: ATS89?*47C6
[ 11:19:38.808 ] [27:INFO] res: \r\n00001\r\n\r\nOK\r\n
[ 11:19:38.808 ] [27:INFO] cmd: AT%GPS=30,2,"RMC","GGA"*D90A
[ 11:19:38.808 ] [27:INFO] res: \r\n%GPS: $GPGGA,111938.000,0300.0000,N,00300.0000,E,1,09,1.0,0.00,M,,,,0000*34\r\n$GPRMC,111938.000,A,0300.0000,N,00300.0000,E,0.00,000.00,301214,,,A*68\r\n\r\nOK\r\n
[ 11:19:39.818 ] [27:INFO] cmd: ATS89?*47C6
[ 11:19:39.818 ] [27:INFO] res: \r\n00001\r\n\r\nOK\r\n
[ 11:19:39.818 ] [27:INFO] cmd: AT%GPS=30,2,"RMC","GGA"*D90A
[ 11:19:39.818 ] [27:INFO] res: \r\n%GPS: $GPGGA,111939.000,0300.0000,N,00300.0000,E,1,09,1.0,0.00,M,,,,0000*35\r\n$GPRMC,111939.000,A,0300.0000,N,00300.0000,E,0.00,000.00,301214,,,A*69\r\n\r\nOK\r\n
[ 11:19:40.828 ] [27:INFO] cmd: ATS89?*47C6
[ 11:19:40.828 ] [27:INFO] res: \r\n00001\r\n\r\nOK\r\n
[ 11:19:40.828 ] [27:INFO] cmd: AT%GPS=30,2,"RMC","GGA"*D90A
[ 11:19:40.828 ] [27:INFO] res: \r\n%GPS: $GPGGA,111940.000,0300.0000,N,00300.0000,E,1,09,1.0,0.00,M,,,,0000*3B\r\n$GPRMC,111940.000,A,0300.0000,N,00300.0000,E,0.00,000.00,301214,,,A*67\r\n\r\nOK\r\n
[ 11:19:41.849 ] [27:INFO] cmd: ATS89?*47C6
[ 11:19:41.849 ] [27:INFO] res: \r\n00001\r\n\r\nOK\r\n
[ 11:19:41.849 ] [27:INFO] cmd: AT%GPS=30,2,"RMC","GGA"*D90A
[ 11:19:41.860 ] [27:INFO] res: \r\n%GPS: $GPGGA,111941.000,0300.0000,N,00300.0000,E,1,09,1.0,0.00,M,,,,0000*3A\r\n$GPRMC,111941.000,A,0300.0000,N,00300.0000,E,0.00,000.00,301214,,,A*66\r\n\r\nOK\r\n
[ 11:19:42.861 ] [27:INFO] cmd: ATS89?*47C6
[ 11:19:42.861 ] [27:INFO] res: \r\n00001\r\n\r\nOK\r\n
[ 11:19:42.861 ] [27:INFO] cmd: AT%GPS=30,2,"RMC","GGA"*D90A
[ 11:19:42.861 ] [27:INFO] res: \r\n%GPS: $GPGGA,111942.000,0300.0000,N,00300.0000,E,1,09,1.0,0.00,M,,,,0000*39\r\n$GPRMC,111942.000,A,0300.0000,N,00300.0000,E,0.00,000.00,301214,,,A*65\r\n\r\nOK\r\n
[ 11:19:43.871 ] [27:INFO] cmd: ATS89?*47C6
[ 11:19:43.871 ] [27:INFO] res: \r\n00001\r\n\r\nOK\r\n
[ 11:19:43.871 ] [27:INFO] cmd: AT%GPS=30,2,"RMC","GGA"*D90A
[ 11:19:43.871 ] [27:INFO] res: \r\n%GPS: $GPGGA,111943.000,0300.0000,N,00300.0000,E,1,09,1.0,0.00,M,,,,0000*38\r\n$GPRMC,111943.000,A,0300.0000,N,00300.0000,E,0.00,000.00,301214,,,A*64\r\n\r\nOK\r\n
[ 11:19:44.891 ] [27:INFO] cmd: ATS89?*47C6
[ 11:19:44.891 ] [27:INFO] res: \r\n00001\r\n\r\nOK\r\n
[ 11:19:44.891 ] [27:INFO] cmd: AT%GPS=30,2,"RMC","GGA"*D90A
[ 11:19:44.891 ] [27:INFO] res: \r\n%GPS: $GPGGA,111944.000,0300.0000,N,00300.0000,E,1,09,1.0,0.00,M,,,,0000*3F\r\n$GPRMC,111944.000,A,0300.0000,N,00300.0000,E,0.00,000.00,301214,,,A*63\r\n\r\nOK\r\n
[ 11:19:45.900 ] [27:INFO] cmd: ATS89?*47C6
[ 11:19:45.900 ] [27:INFO] res: \r\n00001\r\n\r\nOK\r\n
[ 11:19:45.900 ] [27:INFO] cmd: AT%GPS=30,2,"RMC","GGA"*D90A
[ 11:19:45.900 ] [27:INFO] res: \r\n%GPS: $GPGGA,111945.000,0300.0000,N,00300.0000,E,1,09,1.0,0.00,M,,,,0000*3E\r\n$GPRMC,111945.000,A,0300.0000,N,00300.0000,E,0.00,000.00,301214,,,A*62\r\n\r\nOK\r\n
[ 11:19:46.911 ] [27:INFO] cmd: ATS89?*47C6
[ 11:19:46.911 ] [27:INFO] res: \r\n00001\r\n\r\nOK\r\n
[ 11:19:46.911 ] [27:INFO] cmd: AT%GPS=30,2,"RMC","GGA"*D90A
[ 11:19:46.911 ] [27:INFO] res: \r\n%GPS: $GPGGA,111946.000,0300.0000,N,00300.0000,E,1,09,1.0,0.00,M,,,,0000*3D\r\n$GPRMC,111946.000,A,0300.0000,N,00300.0000,E,0.00,000.00,301214,,,A*61\r\n\r\nOK\r\n
[ 11:19:47.931 ] [27:INFO] cmd: ATS89?*47C6
[ 11:19:47.931 ] [27:INFO] res: \r\n00001\r\n\r\nOK\r\n
[ 11:19:47.931 ] [27:INFO] cmd: AT%GPS=30,2,"RMC","GGA"*D90A
[ 11:19:47.931 ] [27:INFO] res: \r\n%GPS: $GPGGA,111947.000,0300.0000,N,00300.0000,E,1,09,1.0,0.00,M,,,,0000*3C\r\n$GPRMC,111947.000,A,0300.0000,N,00300.0000,E,0.00,000.00,301214,,,A*60\r\n\r\nOK\r\n
[ 11:19:48.941 ] [27:INFO] cmd: ATS89?*47C6
[ 11:19:48.941 ] [27:INFO] res: \r\n00001\r\n\r\nOK\r\n
[ 11:19:48.941 ] [27:INFO] cmd: AT%GPS=30,2,"RMC","GGA"*D90A
[ 11:19:48.941 ] [27:INFO] res: \r\n%GPS: $GPGGA,111948.000,0300.0000,N,00300.0000,E,1,09,1.0,0.00,M,,,,0000*33\r\n$GPRMC,111948.000,A,0300.0000,N,00300.0000,E,0.00,000.00,301214,,,A*6F\r\n\r\nOK\r\n
[ 11:19:49.961 ] [27:INFO] cmd: ATS89?*47C6
[ 11:19:49.961 ] [27:INFO] res: \r\n00001\r\n\r\nOK\r\n
[ 11:19:49.961 ] [27:INFO] cmd: AT%GPS=30,2,"RMC","GGA"*D90A
[ 11:19:49.961 ] [27:INFO] res: \r\n%GPS: $GPGGA,111949.000,0300.0000,N,00300.0000,E,1,09,1.0,0.00,M,,,,0000*32\r\n$GPRMC,111949.000,A,0300.0000,N,00300.0000,E,0.00,000.00,301214,,,A*6E\r\n\r\nOK\r\n
[ 11:19:50.971 ] [27:INFO] cmd: ATS89?*47C6
[ 11:19:50.971 ] [27:INFO] res: \r\n00001\r\n\r\nOK\r\n
[ 11:19:50.971 ] [27:INFO] cmd: AT%GPS=30,2,"RMC","GGA"*D90A
[ 11:19:50.981 ] [27:INFO] res: \r\n%GPS: $GPGGA,111950.000,0300.0000,N,00300.0000,E,1,09,1.0,0.00,M,,,,0000*3A\r\n$GPRMC,111950.000,A,0300.0000,N,00300.0000,E,0.00,000.00,301214,,,A*66\r\n\r\nOK\r\n
[ 11:19:51.982 ] [27:INFO] cmd: ATS89?*47C6
[ 11:19:51.982 ] [27:INFO] res: \r\n00001\r\n\r\nOK\r\n
[ 11:19:51.982 ] [27:INFO] cmd: AT%GPS=30,2,"RMC","GGA"*D90A
[ 11:19:51.992 ] [27:INFO] res: \r\n%GPS: $GPGGA,111951.000,0300.0000,N,00300.0000,E,1,09,1.0,0.00,M,,,,0000*3B\r\n$GPRMC,111951.000,A,0300.0000,N,00300.0000,E,0.00,000.00,301214,,,A*67\r\n\r\nOK\r\n
[ 11:19:52.995 ] [27:INFO] cmd: ATS89?*47C6
[ 11:19:52.996 ] [27:INFO] res: \r\n00001\r\n\r\nOK\r\n
[ 11:19:52.996 ] [27:INFO] cmd: AT%GPS=30,2,"RMC","GGA"*D90A
[ 11:19:52.998 ] [27:INFO] res: \r\n%GPS: $GPGGA,111952.000,0300.0000,N,00300.0000,E,1,09,1.0,0.00,M,,,,0000*38\r\n$GPRMC,111952.000,A,0300.0000,N,00300.0000,E,0.00,000.00,301214,,,A*64\r\n\r\nOK\r\n
[ 11:19:54.014 ] [27:INFO] cmd: ATS89?*47C6
[ 11:19:54.014 ] [27:INFO] res: \r\n00001\r\n\r\nOK\r\n
[ 11:19:54.014 ] [27:INFO] cmd: AT%GPS=30,2,"RMC","GGA"*D90A
[ 11:19:54.014 ] [27:INFO] res: \r\n%GPS: $GPGGA,111954.000,0300.0000,N,00300.0000,E,1,09,1.0,0.00,M,,,,0000*3E\r\n$GPRMC,111954.000,A,0300.0000,N,00300.0000,E,0.00,000.00,301214,,,A*62\r\n\r\nOK\r\n
[ 11:19:55.024 ] [27:INFO] cmd: ATS89?*47C6
[ 11:19:55.024 ] [27:INFO] res: \r\n00001\r\n\r\nOK\r\n
[ 11:19:55.024 ] [27:INFO] cmd: AT%GPS=30,2,"RMC","GGA"*D90A
[ 11:19:55.024 ] [27:INFO] res: \r\n%GPS: $GPGGA,111955.000,0300.0000,N,00300.0000,E,1,09,1.0,0.00,M,,,,0000*3F\r\n$GPRMC,111955.000,A,0300.0000,N,00300.0000,E,0.00,000.00,301214,,,A*63\r\n\r\nOK\r\n
[ 11:19:56.044 ] [27:INFO] cmd: ATS89?*47C6
[ 11:19:56.044 ] [27:INFO] res: \r\n00001\r\n\r\nOK\r\n
[ 11:19:56.044 ] [27:INFO] cmd: AT%GPS=30,2,"RMC","GGA"*D90A
[ 11:19:56.044 ] [27:INFO] res: \r\n%GPS: $GPGGA,111956.000,0300.0000,N,00300.0000,E,1,09,1.0,0.00,M,,,,0000*3C\r\n$GPRMC,111956.000,A,0300.0000,N,00300.0000,E,0.00,000.00,301214,,,A*60\r\n\r\nOK\r\n
[ 11:19:57.051 ] [27:INFO] cmd: ATS89?*47C6
[ 11:19:57.051 ] [27:INFO] res: \r\n00001\r\n\r\nOK\r\n
[ 11:19:57.051 ] [27:INFO] cmd: AT%GPS=30,2,"RMC","GGA"*D90A
[ 11:19:57.051 ] [27:INFO] res: \r\n%GPS: $GPGGA,111957.000,0300.0000,N,00300.0000,E,1,09,1.0,0.00,M,,,,0000*3D\r\n$GPRMC,111957.000,A,0300.0000,N,00300.0000,E,0.00,000.00,301214,,,A*61\r\n\r\nOK\r\n
[ 11:19:58.071 ] [27:INFO] cmd: ATS89?*47C6
[ 11:19:58.071 ] [27:INFO] res: \r\n00001\r\n\r\nOK\r\n
[ 11:19:58.071 ] [27:INFO] cmd: AT%GPS=30,2,"RMC","GGA"*D90A
[ 11:19:58.071 ] [27:INFO] res: \r\n%GPS: $GPGGA,111958.000,0300.0000,N,00300.0000,E,1,09,1.0,0.00,M,,,,0000*32\r\n$GPRMC,111958.000,A,0300.0000,N,00300.0000,E,0.00,000.00,301214,,,A*6E\r\n\r\nOK\r\n
[ 11:19:59.081 ] [27:INFO] cmd: ATS89?*47C6
[ 11:19:59.081 ] [27:INFO] res: \r\n00001\r\n\r\nOK\r\n
[ 11:19:59.081 ] [27:INFO] cmd: AT%GPS=30,2,"RMC","GGA"*D90A
[ 11:19:59.091 ] [27:INFO] res: \r\n%GPS: $GPGGA,111959.000,0300.0000,N,00300.0000,E,1,09,1.0,0.00,M,,,,0000*33\r\n$GPRMC,111959.000,A,0300.0000,N,00300.0000,E,0.00,000.00,301214,,,A*6F\r\n\r\nOK\r\n
[ 11:20:00.102 ] [27:INFO] cmd: ATS89?*47C6
[ 11:20:00.102 ] [27:INFO] res: \r\n00001\r\n\r\nOK\r\n
[ 11:20:00.102 ] [27:INFO] cmd: AT%GPS=30,2,"RMC","GGA"*D90A
[ 11:20:00.112 ] [27:INFO] res: \r\n%GPS: $GPGGA,112000.000,0300.0000,N,00300.0000,E,1,09,1.0,0.00,M,,,,0000*35\r\n$GPRMC,112000.000,A,0300.0000,N,00300.0000,E,0.00,000.00,301214,,,A*69\r\n\r\nOK\r\n
[ 11:20:01.107 ] [27:INFO] cmd: ATS89?*47C6
[ 11:20:01.108 ] [27:INFO] res: \r\n00001\r\n\r\nOK\r\n
[ 11:20:01.108 ] [27:INFO] cmd: AT%GPS=30,2,"RMC","GGA"*D90A
[ 11:20:01.110 ] [27:INFO] res: \r\n%GPS: $GPGGA,112001.000,0300.0000,N,00300.0000,E,1,09,1.0,0.00,M,,,,0000*34\r\n$GPRMC,112001.000,A,0300.0000,N,00300.0000,E,0.00,000.00,301214,,,A*68\r\n\r\nOK\r\n
[ 11:20:02.124 ] [27:INFO] cmd: ATS89?*47C6
[ 11:20:02.124 ] [27:INFO] res: \r\n00001\r\n\r\nOK\r\n
[ 11:20:02.124 ] [27:INFO] cmd: AT%GPS=30,2,"RMC","GGA"*D90A
[ 11:20:02.124 ] [27:INFO] res: \r\n%GPS: $GPGGA,112002.000,0300.0000,N,00300.0000,E,1,09,1.0,0.00,M,,,,0000*37\r\n$GPRMC,112002.000,A,0300.0000,N,00300.0000,E,0.00,000.00,301214,,,A*6B\r\n\r\nOK\r\n
[ 11:20:03.144 ] [27:INFO] cmd: ATS89?*47C6
[ 11:20:03.144 ] [27:INFO] res: \r\n00001\r\n\r\nOK\r\n
[ 11:20:03.144 ] [27:INFO] cmd: AT%GPS=30,2,"RMC","GGA"*D90A
[ 11:20:03.144 ] [27:INFO] res: \r\n%GPS: $GPGGA,112003.000,0300.0000,N,00300.0000,E,1,09,1.0,0.00,M,,,,0000*36\r\n$GPRMC,112003.000,A,0300.0000,N,00300.0000,E,0.00,000.00,301214,,,A*6A\r\n\r\nOK\r\n
[ 11:20:04.154 ] [27:INFO] cmd: ATS89?*47C6
[ 11:20:04.154 ] [27:INFO] res: \r\n00001\r\n\r\nOK\r\n
[ 11:20:04.154 ] [27:INFO] cmd: AT%GPS=30,2,"RMC","GGA"*D90A
[ 11:20:04.154 ] [27:INFO] res: \r\n%GPS: $GPGGA,112004.000,0300.0000,N,00300.0000,E,1,09,1.0,0.00,M,,,,0000*31\r\n$GPRMC,112004.000,A,0300.0000,N,00300.0000,E,0.00,000.00,301214,,,A*6D\r\n\r\nOK\r\n
[ 11:20:05.164 ] [27:INFO] cmd: ATS89?*47C6
[ 11:20:05.164 ] [27:INFO] res: \r\n00001\r\n\r\nOK\r\n
[ 11:20:05.164 ] [27:INFO] cmd: AT%GPS=30,2,"RMC","GGA"*D90A
[ 11:20:05.164 ] [27:INFO] res: \r\n%GPS: $GPGGA,112005.000,0300.0000,N,00300.0000,E,1,09,1.0,0.00,M,,,,0000*30\r\n$GPRMC,112005.000,A,0300.0000,N,00300.0000,E,0.00,000.00,301214,,,A*6C\r\n\r\nOK\r\n
[ 11:20:06.184 ] [27:INFO] cmd: ATS89?*47C6
[ 11:20:06.184 ] [27:INFO] res: \r\n00001\r\n\r\nOK\r\n
[ 11:20:06.184 ] [27:INFO] cmd: AT%GPS=30,2,"RMC","GGA"*D90A
[ 11:20:06.184 ] [27:INFO] res: \r\n%GPS: $GPGGA,112006.000,0300.0000,N,00300.0000,E,1,09,1.0,0.00,M,,,,0000*33\r\n$GPRMC,112006.000,A,0300.0000,N,00300.0000,E,0.00,000.00,301214,,,A*6F\r\n\r\nOK\r\n
[ 11:20:07.196 ] [27:INFO] cmd: ATS89?*47C6
[ 11:20:07.196 ] [27:INFO] res: \r\n00001\r\n\r\nOK\r\n
[ 11:20:07.196 ] [27:INFO] cmd: AT%GPS=30,2,"RMC","GGA"*D90A
[ 11:20:07.196 ] [27:INFO] res: \r\n%GPS: $GPGGA,112007.000,0300.0000,N,00300.0000,E,1,09,1.0,0.00,M,,,,0000*32\r\n$GPRMC,112007.000,A,0300.0000,N,00300.0000,E,0.00,000.00,301214,,,A*6E\r\n\r\nOK\r\n
[ 11:20:08.207 ] [27:INFO] cmd: ATS89?*47C6
[ 11:20:08.207 ] [27:INFO] res: \r\n00001\r\n\r\nOK\r\n
[ 11:20:08.207 ] [27:INFO] cmd: AT%GPS=30,2,"RMC","GGA"*D90A
[ 11:20:08.207 ] [27:INFO] res: \r\n%GPS: $GPGGA,112008.000,0300.0000,N,00300.0000,E,1,09,1.0,0.00,M,,,,0000*3D\r\n$GPRMC,112008.000,A,0300.0000,N,00300.0000,E,0.00,000.00,301214,,,A*61\r\n\r\nOK\r\n
[ 11:20:09.227 ] [27:INFO] cmd: ATS89?*47C6
[ 11:20:09.227 ] [27:INFO] res: \r\n00001\r\n\r\nOK\r\n
[ 11:20:09.227 ] [27:INFO] cmd: AT%GPS=30,2,"RMC","GGA"*D90A
[ 11:20:09.227 ] [27:INFO] res: \r\n%GPS: $GPGGA,112009.000,0300.0000,N,00300.0000,E,1,09,1.0,0.00,M,,,,0000*3C\r\n$GPRMC,112009.000,A,0300.0000,N,00300.0000,E,0.00,000.00,301214,,,A*60\r\n\r\nOK\r\n
[ 11:20:10.237 ] [27:INFO] cmd: ATS89?*47C6
[ 11:20:10.237 ] [27:INFO] res: \r\n00001\r\n\r\nOK\r\n
[ 11:20:10.237 ] [27:INFO] cmd: AT%GPS=30,2,"RMC","GGA"*D90A
[ 11:20:10.237 ] [27:INFO] res: \r\n%GPS: $GPGGA,112010.000,0300.0000,N,00300.0000,E,1,09,1.0,0.00,M,,,,0000*34\r\n$GPRMC,112010.000,A,0300.0000,N,00300.0000,E,0.00,000.00,301214,,,A*68\r\n\r\nOK\r\n
[ 11:20:11.247 ] [27:INFO] cmd: ATS89?*47C6
[ 11:20:11.247 ] [27:INFO] res: \r\n00001\r\n\r\nOK\r\n
[ 11:20:11.247 ] [27:INFO] cmd: AT%GPS=30,2,"RMC","GGA"*D90A
[ 11:20:11.247 ] [27:INFO] res: \r\n%GPS: $GPGGA,112011.000,0300.0000,N,00300.0000,E,1,09,1.0,0.00,M,,,,0000*35\r\n$GPRMC,112011.000,A,0300.0000,N,00300.0000,E,0.00,000.00,301214,,,A*69\r\n\r\nOK\r\n
[ 11:20:12.269 ] [27:INFO] cmd: ATS89?*47C6
[ 11:20:12.279 ] [27:INFO] res: \r\n00001\r\n\r\nOK\r\n
[ 11:20:12.279 ] [27:INFO] cmd: AT%GPS=30,2,"RMC","GGA"*D90A
[ 11:20:12.289 ] [27:INFO] res: \r\n%GPS: $GPGGA,112012.000,0300.0000,N,00300.0000,E,1,09,1.0,0.00,M,,,,0000*36\r\n$GPRMC,112012.000,A,0300.0000,N,00300.0000,E,0.00,000.00,301214,,,A*6A\r\n\r\nOK\r\n
[ 11:20:13.279 ] [27:INFO] cmd: ATS89?*47C6
[ 11:20:13.279 ] [27:INFO] res: \r\n00001\r\n\r\nOK\r\n
[ 11:20:13.279 ] [27:INFO] cmd: AT%GPS=30,2,"RMC","GGA"*D90A
[ 11:20:13.279 ] [27:INFO] res: \r\n%GPS: $GPGGA,112013.000,0300.0000,N,00300.0000,E,1,09,1.0,0.00,M,,,,0000*37\r\n$GPRMC,112013.000,A,0300.0000,N,00300.0000,E,0.00,000.00,301214,,,A*6B\r\n\r\nOK\r\n
[ 11:20:14.291 ] [27:INFO] cmd: ATS89?*47C6
[ 11:20:14.291 ] [27:INFO] res: \r\n00001\r\n\r\nOK\r\n
[ 11:20:14.291 ] [27:INFO] cmd: AT%GPS=30,2,"RMC","GGA"*D90A
[ 11:20:14.291 ] [27:INFO] res: \r\n%GPS: $GPGGA,112014.000,0300.0000,N,00300.0000,E,1,09,1.0,0.00,M,,,,0000*30\r\n$GPRMC,112014.000,A,0300.0000,N,00300.0000,E,0.00,000.00,301214,,,A*6C\r\n\r\nOK\r\n
[ 11:20:15.311 ] [27:INFO] cmd: ATS89?*47C6
[ 11:20:15.311 ] [27:INFO] res: \r\n00001\r\n\r\nOK\r\n
[ 11:20:15.311 ] [27:INFO] cmd: AT%GPS=30,2,"RMC","GGA"*D90A
[ 11:20:15.321 ] [27:INFO] res: \r\n%GPS: $GPGGA,112015.000,0300.0000,N,00300.0000,E,1,09,1.0,0.00,M,,,,0000*31\r\n$GPRMC,112015.000,A,0300.0000,N,00300.0000,E,0.00,000.00,301214,,,A*6D\r\n\r\nOK\r\n
[ 11:20:16.321 ] [27:INFO] cmd: ATS89?*47C6
[ 11:20:16.321 ] [27:INFO] res: \r\n00001\r\n\r\nOK\r\n
[ 11:20:16.321 ] [27:INFO] cmd: AT%GPS=30,2,"RMC","GGA"*D90A
[ 11:20:16.321 ] [27:INFO] res: \r\n%GPS: $GPGGA,112016.000,0300.0000,N,00300.0000,E,1,09,1.0,0.00,M,,,,0000*32\r\n$GPRMC,112016.000,A,0300.0000,N,00300.0000,E,0.00,000.00,301214,,,A*6E\r\n\r\nOK\r\n
[ 11:20:17.333 ] [27:INFO] cmd: ATS89?*47C6
[ 11:20:17.333 ] [27:INFO] res: \r\n00001\r\n\r\nOK\r\n
[ 11:20:17.333 ] [27:INFO] cmd: AT%GPS=30,2,"RMC","GGA"*D90A
[ 11:20:17.333 ] [27:INFO] res: \r\n%GPS: $GPGGA,112017.000,0300.0000,N,00300.0000,E,1,09,1.0,0.00,M,,,,0000*33\r\n$GPRMC,112017.000,A,0300.0000,N,00300.0000,E,0.00,000.00,301214,,,A*6F\r\n\r\nOK\r\n
[ 11:20:18.354 ] [27:INFO] cmd: ATS89?*47C6
[ 11:20:18.354 ] [27:INFO] res: \r\n00001\r\n\r\nOK\r\n
[ 11:20:18.354 ] [27:INFO] cmd: AT%GPS=30,2,"RMC","GGA"*D90A
[ 11:20:18.354 ] [27:INFO] res: \r\n%GPS: $GPGGA,112018.000,0300.0000,N,00300.0000,E,1,09,1.0,0.00,M,,,,0000*3C\r\n$GPRMC,112018.000,A,0300.0000,N,00300.0000,E,0.00,000.00,301214,,,A*60\r\n\r\nOK\r\n
[ 11:20:19.359 ] [27:INFO] cmd: ATS89?*47C6
[ 11:20:19.359 ] [27:INFO] res: \r\n00001\r\n\r\nOK\r\n
[ 11:20:19.359 ] [27:INFO] cmd: AT%GPS=30,2,"RMC","GGA"*D90A
[ 11:20:19.359 ] [27:INFO] res: \r\n%GPS: $GPGGA,112019.000,0300.0000,N,00300.0000,E,1,09,1.0,0.00,M,,,,0000*3D\r\n$GPRMC,112019.000,A,0300.0000,N,00300.0000,E,0.00,000.00,301214,,,A*61\r\n\r\nOK\r\n
[ 11:20:20.379 ] [27:INFO] cmd: ATS89?*47C6
[ 11:20:20.379 ] [27:INFO] res: \r\n00001\r\n\r\nOK\r\n
[ 11:20:20.379 ] [27:INFO] cmd: AT%GPS=30,2,"RMC","GGA"*D90A
[ 11:20:20.379 ] [27:INFO] res: \r\n%GPS: $GPGGA,112020.000,0300.0000,N,00300.0000,E,1,09,1.0,0.00,M,,,,0000*37\r\n$GPRMC,112020.000,A,0300.0000,N,00300.0000,E,0.00,000.00,301214,,,A*6B\r\n\r\nOK\r\n
[ 11:20:21.389 ] [27:INFO] cmd: ATS89?*47C6
[ 11:20:21.389 ] [27:INFO] res: \r\n00001\r\n\r\nOK\r\n
[ 11:20:21.389 ] [27:INFO] cmd: AT%GPS=30,2,"RMC","GGA"*D90A
[ 11:20:21.389 ] [27:INFO] res: \r\n%GPS: $GPGGA,112021.000,0300.0000,N,00300.0000,E,1,09,1.0,0.00,M,,,,0000*36\r\n$GPRMC,112021.000,A,0300.0000,N,00300.0000,E,0.00,000.00,301214,,,A*6A\r\n\r\nOK\r\n
[ 11:20:22.401 ] [27:INFO] cmd: ATS89?*47C6
[ 11:20:22.401 ] [27:INFO] res: \r\n00001\r\n\r\nOK\r\n
[ 11:20:22.401 ] [27:INFO] cmd: AT%GPS=30,2,"RMC","GGA"*D90A
[ 11:20:22.401 ] [27:INFO] res: \r\n%GPS: $GPGGA,112022.000,0300.0000,N,00300.0000,E,1,09,1.0,0.00,M,,,,0000*35\r\n$GPRMC,112022.000,A,0300.0000,N,00300.0000,E,0.00,000.00,301214,,,A*69\r\n\r\nOK\r\n
[ 11:20:23.421 ] [27:INFO] cmd: ATS89?*47C6
[ 11:20:23.421 ] [27:INFO] res: \r\n00001\r\n\r\nOK\r\n
[ 11:20:23.421 ] [27:INFO] cmd: AT%GPS=30,2,"RMC","GGA"*D90A
[ 11:20:23.421 ] [27:INFO] res: \r\n%GPS: $GPGGA,112023.000,0300.0000,N,00300.0000,E,1,09,1.0,0.00,M,,,,0000*34\r\n$GPRMC,112023.000,A,0300.0000,N,00300.0000,E,0.00,000.00,301214,,,A*68\r\n\r\nOK\r\n
[ 11:20:24.431 ] [27:INFO] cmd: ATS89?*47C6
[ 11:20:24.431 ] [27:INFO] res: \r\n00001\r\n\r\nOK\r\n
[ 11:20:24.431 ] [27:INFO] cmd: AT%GPS=30,2,"RMC","GGA"*D90A
[ 11:20:24.431 ] [27:INFO] res: \r\n%GPS: $GPGGA,112024.000,0300.0000,N,00300.0000,E,1,09,1.0,0.00,M,,,,0000*33\r\n$GPRMC,112024.000,A,0300.0000,N,00300.0000,E,0.00,000.00,301214,,,A*6F\r\n\r\nOK\r\n
[ 11:20:25.451 ] [27:INFO] cmd: ATS89?*47C6
[ 11:20:25.451 ] [27:INFO] res: \r\n00001\r\n\r\nOK\r\n
[ 11:20:25.451 ] [27:INFO] cmd: AT%GPS=30,2,"RMC","GGA"*D90A
[ 11:20:25.451 ] [27:INFO] res: \r\n%GPS: $GPGGA,112025.000,0300.0000,N,00300.0000,E,1,09,1.0,0.00,M,,,,0000*32\r\n$GPRMC,112025.000,A,0300.0000,N,00300.0000,E,0.00,000.00,301214,,,A*6E\r\n\r\nOK\r\n
[ 11:20:26.461 ] [27:INFO] cmd: ATS89?*47C6
[ 11:20:26.461 ] [27:INFO] res: \r\n00001\r\n\r\nOK\r\n
[ 11:20:26.461 ] [27:INFO] cmd: AT%GPS=30,2,"RMC","GGA"*D90A
[ 11:20:26.461 ] [27:INFO] res: \r\n%GPS: $GPGGA,112026.000,0300.0000,N,00300.0000,E,1,09,1.0,0.00,M,,,,0000*31\r\n$GPRMC,112026.000,A,0300.0000,N,00300.0000,E,0.00,000.00,301214,,,A*6D\r\n\r\nOK\r\n
[ 11:20:27.472 ] [27:INFO] cmd: ATS89?*47C6
[ 11:20:27.472 ] [27:INFO] res: \r\n00001\r\n\r\nOK\r\n
[ 11:20:27.472 ] [27:INFO] cmd: AT%GPS=30,2,"RMC","GGA"*D90A
[ 11:20:27.472 ] [27:INFO] res: \r\n%GPS: $GPGGA,112027.000,0300.0000,N,00300.0000,E,1,09,1.0,0.00,M,,,,0000*30\r\n$GPRMC,112027.000,A,0300.0000,N,00300.0000,E,0.00,000.00,301214,,,A*6C\r\n\r\nOK\r\n
[ 11:20:28.487 ] [27:INFO] cmd: ATS89?*47C6
[ 11:20:28.487 ] [27:INFO] res: \r\n00001\r\n\r\nOK\r\n
[ 11:20:28.487 ] [27:INFO] cmd: AT%GPS=30,2,"RMC","GGA"*D90A
[ 11:20:28.487 ] [27:INFO] res: \r\n%GPS: $GPGGA,112028.000,0300.0000,N,00300.0000,E,1,09,1.0,0.00,M,,,,0000*3F\r\n$GPRMC,112028.000,A,0300.0000,N,00300.0000,E,0.00,000.00,301214,,,A*63\r\n\r\nOK\r\n
[ 11:20:29.507 ] [27:INFO] cmd: ATS89?*47C6
[ 11:20:29.507 ] [27:INFO] res: \r\n00001\r\n\r\nOK\r\n
[ 11:20:29.507 ] [27:INFO] cmd: AT%GPS=30,2,"RMC","GGA"*D90A
[ 11:20:29.507 ] [27:INFO] res: \r\n%GPS: $GPGGA,112029.000,0300.0000,N,00300.0000,E,1,09,1.0,0.00,M,,,,0000*3E\r\n$GPRMC,112029.000,A,0300.0000,N,00300.0000,E,0.00,000.00,301214,,,A*62\r\n\r\nOK\r\n
[ 11:20:30.517 ] [27:INFO] cmd: ATS89?*47C6
[ 11:20:30.517 ] [27:INFO] res: \r\n00001\r\n\r\nOK\r\n
[ 11:20:30.517 ] [27:INFO] cmd: AT%GPS=30,2,"RMC","GGA"*D90A
[ 11:20:30.517 ] [27:INFO] res: \r\n%GPS: $GPGGA,112030.000,0300.0000,N,00300.0000,E,1,09,1.0,0.00,M,,,,0000*36\r\n$GPRMC,112030.000,A,0300.0000,N,00300.0000,E,0.00,000.00,301214,,,A*6A\r\n\r\nOK\r\n
[ 11:20:31.527 ] [27:INFO] cmd: ATS89?*47C6
[ 11:20:31.527 ] [27:INFO] res: \r\n00001\r\n\r\nOK\r\n
[ 11:20:31.527 ] [27:INFO] cmd: AT%GPS=30,2,"RMC","GGA"*D90A
[ 11:20:31.527 ] [27:INFO] res: \r\n%GPS: $GPGGA,112031.000,0300.0000,N,00300.0000,E,1,09,1.0,0.00,M,,,,0000*37\r\n$GPRMC,112031.000,A,0300.0000,N,00300.0000,E,0.00,000.00,301214,,,A*6B\r\n\r\nOK\r\n
[ 11:20:32.549 ] [27:INFO] cmd: ATS89?*47C6
[ 11:20:32.549 ] [27:INFO] res: \r\n00001\r\n\r\nOK\r\n
[ 11:20:32.549 ] [27:INFO] cmd: AT%GPS=30,2,"RMC","GGA"*D90A
[ 11:20:32.549 ] [27:INFO] res: \r\n%GPS: $GPGGA,112032.000,0300.0000,N,00300.0000,E,1,09,1.0,0.00,M,,,,0000*34\r\n$GPRMC,112032.000,A,0300.0000,N,00300.0000,E,0.00,000.00,301214,,,A*68\r\n\r\nOK\r\n
[ 11:20:33.559 ] [27:INFO] cmd: ATS89?*47C6
[ 11:20:33.559 ] [27:INFO] res: \r\n00001\r\n\r\nOK\r\n
[ 11:20:33.559 ] [27:INFO] cmd: AT%GPS=30,2,"RMC","GGA"*D90A
[ 11:20:33.559 ] [27:INFO] res: \r\n%GPS: $GPGGA,112033.000,0300.0000,N,00300.0000,E,1,09,1.0,0.00,M,,,,0000*35\r\n$GPRMC,112033.000,A,0300.0000,N,00300.0000,E,0.00,000.00,301214,,,A*69\r\n\r\nOK\r\n
[ 11:20:34.569 ] [27:INFO] cmd: ATS89?*47C6
[ 11:20:34.569 ] [27:INFO] res: \r\n00001\r\n\r\nOK\r\n
[ 11:20:34.569 ] [27:INFO] cmd: AT%GPS=30,2,"RMC","GGA"*D90A
[ 11:20:34.569 ] [27:INFO] res: \r\n%GPS: $GPGGA,112034.000,0300.0000,N,00300.0000,E,1,09,1.0,0.00,M,,,,0000*32\r\n$GPRMC,112034.000,A,0300.0000,N,00300.0000,E,0.00,000.00,301214,,,A*6E\r\n\r\nOK\r\n
[ 11:20:35.590 ] [27:INFO] cmd: ATS89?*47C6
[ 11:20:35.590 ] [27:INFO] res: \r\n00001\r\n\r\nOK\r\n
[ 11:20:35.590 ] [27:INFO] cmd: AT%GPS=30,2,"RMC","GGA"*D90A
[ 11:20:35.590 ] [27:INFO] res: \r\n%GPS: $GPGGA,112035.000,0300.0000,N,00300.0000,E,1,09,1.0,0.00,M,,,,0000*33\r\n$GPRMC,112035.000,A,0300.0000,N,00300.0000,E,0.00,000.00,301214,,,A*6F\r\n\r\nOK\r\n
[ 11:20:36.600 ] [27:INFO] cmd: ATS89?*47C6
[ 11:20:36.600 ] [27:INFO] res: \r\n00001\r\n\r\nOK\r\n
[ 11:20:36.600 ] [27:INFO] cmd: AT%GPS=30,2,"RMC","GGA"*D90A
[ 11:20:36.600 ] [27:INFO] res: \r\n%GPS: $GPGGA,112036.000,0300.0000,N,00300.0000,E,1,09,1.0,0.00,M,,,,0000*30\r\n$GPRMC,112036.000,A,0300.0000,N,00300.0000,E,0.00,000.00,301214,,,A*6C\r\n\r\nOK\r\n
[ 11:20:37.614 ] [27:INFO] cmd: ATS89?*47C6
[ 11:20:37.614 ] [27:INFO] res: \r\n00001\r\n\r\nOK\r\n
[ 11:20:37.614 ] [27:INFO] cmd: AT%GPS=30,2,"RMC","GGA"*D90A
[ 11:20:37.614 ] [27:INFO] res: \r\n%GPS: $GPGGA,112037.000,0300.0000,N,00300.0000,E,1,09,1.0,0.00,M,,,,0000*31\r\n$GPRMC,112037.000,A,0300.0000,N,00300.0000,E,0.00,000.00,301214,,,A*6D\r\n\r\nOK\r\n
[ 11:20:38.634 ] [27:INFO] cmd: ATS89?*47C6
[ 11:20:38.634 ] [27:INFO] res: \r\n00001\r\n\r\nOK\r\n
[ 11:20:38.634 ] [27:INFO] cmd: AT%GPS=30,2,"RMC","GGA"*D90A
[ 11:20:38.634 ] [27:INFO] res: \r\n%GPS: $GPGGA,112038.000,0300.0000,N,00300.0000,E,1,09,1.0,0.00,M,,,,0000*3E\r\n$GPRMC,112038.000,A,0300.0000,N,00300.0000,E,0.00,000.00,301214,,,A*62\r\n\r\nOK\r\n
[ 11:20:39.644 ] [27:INFO] cmd: ATS89?*47C6
[ 11:20:39.644 ] [27:INFO] res: \r\n00001\r\n\r\nOK\r\n
[ 11:20:39.644 ] [27:INFO] cmd: AT%GPS=30,2,"RMC","GGA"*D90A
[ 11:20:39.644 ] [27:INFO] res: \r\n%GPS: $GPGGA,112039.000,0300.0000,N,00300.0000,E,1,09,1.0,0.00,M,,,,0000*3F\r\n$GPRMC,112039.000,A,0300.0000,N,00300.0000,E,0.00,000.00,301214,,,A*63\r\n\r\nOK\r\n
[ 11:20:40.654 ] [27:INFO] cmd: ATS89?*47C6
[ 11:20:40.654 ] [27:INFO] res: \r\n00001\r\n\r\nOK\r\n
[ 11:20:40.654 ] [27:INFO] cmd: AT%GPS=30,2,"RMC","GGA"*D90A
[ 11:20:40.654 ] [27:INFO] res: \r\n%GPS: $GPGGA,112040.000,0300.0000,N,00300.0000,E,1,09,1.0,0.00,M,,,,0000*31\r\n$GPRMC,112040.000,A,0300.0000,N,00300.0000,E,0.00,000.00,301214,,,A*6D\r\n\r\nOK\r\n
[ 11:20:41.674 ] [27:INFO] cmd: ATS89?*47C6
[ 11:20:41.684 ] [27:INFO] res: \r\n00001\r\n\r\nOK\r\n
[ 11:20:41.684 ] [27:INFO] cmd: AT%GPS=30,2,"RMC","GGA"*D90A
[ 11:20:41.694 ] [27:INFO] res: \r\n%GPS: $GPGGA,112041.000,0300.0000,N,00300.0000,E,1,09,1.0,0.00,M,,,,0000*30\r\n$GPRMC,112041.000,A,0300.0000,N,00300.0000,E,0.00,000.00,301214,,,A*6C\r\n\r\nOK\r\n
[ 11:20:42.686 ] [27:INFO] cmd: ATS89?*47C6
[ 11:20:42.686 ] [27:INFO] res: \r\n00001\r\n\r\nOK\r\n
[ 11:20:42.686 ] [27:INFO] cmd: AT%GPS=30,2,"RMC","GGA"*D90A
[ 11:20:42.686 ] [27:INFO] res: \r\n%GPS: $GPGGA,112042.000,0300.0000,N,00300.0000,E,1,09,1.0,0.00,M,,,,0000*33\r\n$GPRMC,112042.000,A,0300.0000,N,00300.0000,E,0.00,000.00,301214,,,A*6F\r\n\r\nOK\r\n
[ 11:20:43.696 ] [27:INFO] cmd: ATS89?*47C6
[ 11:20:43.706 ] [27:INFO] res: \r\n00001\r\n\r\nOK\r\n
[ 11:20:43.706 ] [27:INFO] cmd: AT%GPS=30,2,"RMC","GGA"*D90A
[ 11:20:43.706 ] [27:INFO] res: \r\n%GPS: $GPGGA,112043.000,0300.0000,N,00300.0000,E,1,09,1.0,0.00,M,,,,0000*32\r\n$GPRMC,112043.000,A,0300.0000,N,00300.0000,E,0.00,000.00,301214,,,A*6E\r\n\r\nOK\r\n
[ 11:20:44.711 ] [27:INFO] cmd: ATS89?*47C6
[ 11:20:44.711 ] [27:INFO] res: \r\n00001\r\n\r\nOK\r\n
[ 11:20:44.711 ] [27:INFO] cmd: AT%GPS=30,2,"RMC","GGA"*D90A
[ 11:20:44.711 ] [27:INFO] res: \r\n%GPS: $GPGGA,112044.000,0300.0000,N,00300.0000,E,1,09,1.0,0.00,M,,,,0000*35\r\n$GPRMC,112044.000,A,0300.0000,N,00300.0000,E,0.00,000.00,301214,,,A*69\r\n\r\nOK\r\n
[ 11:20:45.731 ] [27:INFO] cmd: ATS89?*47C6
[ 11:20:45.731 ] [27:INFO] res: \r\n00001\r\n\r\nOK\r\n
[ 11:20:45.731 ] [27:INFO] cmd: AT%GPS=30,2,"RMC","GGA"*D90A
[ 11:20:45.731 ] [27:INFO] res: \r\n%GPS: $GPGGA,112045.000,0300.0000,N,00300.0000,E,1,09,1.0,0.00,M,,,,0000*34\r\n$GPRMC,112045.000,A,0300.0000,N,00300.0000,E,0.00,000.00,301214,,,A*68\r\n\r\nOK\r\n
[ 11:20:46.741 ] [27:INFO] cmd: ATS89?*47C6
[ 11:20:46.741 ] [27:INFO] res: \r\n00001\r\n\r\nOK\r\n
[ 11:20:46.741 ] [27:INFO] cmd: AT%GPS=30,2,"RMC","GGA"*D90A
[ 11:20:46.741 ] [27:INFO] res: \r\n%GPS: $GPGGA,112046.000,0300.0000,N,00300.0000,E,1,09,1.0,0.00,M,,,,0000*37\r\n$GPRMC,112046.000,A,0300.0000,N,00300.0000,E,0.00,000.00,301214,,,A*6B\r\n\r\nOK\r\n
[ 11:20:47.753 ] [27:INFO] cmd: ATS89?*47C6
[ 11:20:47.753 ] [27:INFO] res: \r\n00001\r\n\r\nOK\r\n
[ 11:20:47.753 ] [27:INFO] cmd: AT%GPS=30,2,"RMC","GGA"*D90A
[ 11:20:47.753 ] [27:INFO] res: \r\n%GPS: $GPGGA,112047.000,0300.0000,N,00300.0000,E,1,09,1.0,0.00,M,,,,0000*36\r\n$GPRMC,112047.000,A,0300.0000,N,00300.0000,E,0.00,000.00,301214,,,A*6A\r\n\r\nOK\r\n
[ 11:20:48.773 ] [27:INFO] cmd: ATS89?*47C6
[ 11:20:48.773 ] [27:INFO] res: \r\n00001\r\n\r\nOK\r\n
[ 11:20:48.773 ] [27:INFO] cmd: AT%GPS=30,2,"RMC","GGA"*D90A
[ 11:20:48.783 ] [27:INFO] res: \r\n%GPS: $GPGGA,112048.000,0300.0000,N,00300.0000,E,1,09,1.0,0.00,M,,,,0000*39\r\n$GPRMC,112048.000,A,0300.0000,N,00300.0000,E,0.00,000.00,301214,,,A*65\r\n\r\nOK\r\n
[ 11:20:49.779 ] [27:INFO] cmd: ATS89?*47C6
[ 11:20:49.779 ] [27:INFO] res: \r\n00001\r\n\r\nOK\r\n
[ 11:20:49.779 ] [27:INFO] cmd: AT%GPS=30,2,"RMC","GGA"*D90A
